{"version":"1.0","updatedAt":"2020-10-03T10:15:52.008Z","shelters":[{"type":0,"name":"稲丘小学校","address":"千葉県千葉市稲毛区稲丘町19-30","postalCode":"263-0033","coordinate":{"latitude":35.632606,"longitude":140.088013}},{"type":0,"name":"稲毛公園","address":"千葉県千葉市稲毛区稲毛1-10","postalCode":"263-0034","coordinate":{"latitude":35.636148,"longitude":140.082672}},{"type":0,"name":"稲毛公民館","address":"千葉県千葉市稲毛区稲毛1-10-17","postalCode":"263-0034","coordinate":{"latitude":35.636562,"longitude":140.08339}},{"type":0,"name":"稲毛中学校","address":"千葉県千葉市稲毛区稲毛町5-120","postalCode":"263-0035","coordinate":{"latitude":35.643927,"longitude":140.0821}},{"type":0,"name":"稲毛小学校","address":"千葉県千葉市稲毛区稲毛町5-535","postalCode":"263-0035","coordinate":{"latitude":35.64062,"longitude":140.08292}},{"type":0,"name":"稲毛東公園","address":"千葉県千葉市稲毛区稲毛東5-8","postalCode":"263-0031","coordinate":{"latitude":35.641515,"longitude":140.086922}},{"type":0,"name":"草野小学校","address":"千葉県千葉市稲毛区園生町1385","postalCode":"263-0051","coordinate":{"latitude":35.65317,"longitude":140.125533}},{"type":0,"name":"草野中学校","address":"千葉県千葉市稲毛区園生町1397","postalCode":"263-0051","coordinate":{"latitude":35.652474,"longitude":140.127453}},{"type":0,"name":"草野公民館","address":"千葉県千葉市稲毛区園生町384-93","postalCode":"263-0051","coordinate":{"latitude":35.654072,"longitude":140.119792}},{"type":0,"name":"あやめ台小学校","address":"千葉県千葉市稲毛区園生町446-1","postalCode":"263-0051","coordinate":{"latitude":35.646871,"longitude":140.115721}},{"type":0,"name":"柏台小学校","address":"千葉県千葉市稲毛区園生町588","postalCode":"263-0051","coordinate":{"latitude":35.648613,"longitude":140.10734}},{"type":0,"name":"緑が丘公民館","address":"千葉県千葉市稲毛区宮野木町1807-3","postalCode":"263-0054","coordinate":{"latitude":35.657817,"longitude":140.107228}},{"type":0,"name":"宮野木小学校","address":"千葉県千葉市稲毛区宮野木町2100","postalCode":"263-0054","coordinate":{"latitude":35.658964,"longitude":140.109734}},{"type":0,"name":"宮野木スポーツセンター","address":"千葉県千葉市稲毛区宮野木町2150-4","postalCode":"263-0054","coordinate":{"latitude":35.66299,"longitude":140.105819}},{"type":0,"name":"県立京葉工業高等学校","address":"千葉県千葉市稲毛区穴川4-11-32","postalCode":"263-0024","coordinate":{"latitude":35.638143,"longitude":140.105287}},{"type":0,"name":"穴川コミュニティセンター","address":"千葉県千葉市稲毛区穴川4-12-3","postalCode":"263-0024","coordinate":{"latitude":35.63627,"longitude":140.106468}},{"type":0,"name":"轟公民館","address":"千葉県千葉市稲毛区轟町1-12-3","postalCode":"263-0021","coordinate":{"latitude":35.624684,"longitude":140.109721}},{"type":0,"name":"県立千葉東高等学校","address":"千葉県千葉市稲毛区轟町1-18-52","postalCode":"263-0021","coordinate":{"latitude":35.625768,"longitude":140.111161}},{"type":0,"name":"轟町小学校","address":"千葉県千葉市稲毛区轟町3-4-30","postalCode":"263-0021","coordinate":{"latitude":35.630306,"longitude":140.108309}},{"type":0,"name":"轟町中学校","address":"千葉県千葉市稲毛区轟町3-5-14","postalCode":"263-0021","coordinate":{"latitude":35.631176,"longitude":140.108064}},{"type":0,"name":"市立第二養護学校","address":"千葉県千葉市稲毛区轟町3-6-25","postalCode":"263-0021","coordinate":{"latitude":35.631506,"longitude":140.109383}},{"type":0,"name":"黒砂公民館","address":"千葉県千葉市稲毛区黒砂2-4-18","postalCode":"263-0042","coordinate":{"latitude":35.626439,"longitude":140.093987}},{"type":0,"name":"西千葉公園","address":"千葉県千葉市稲毛区黒砂台3-1","postalCode":"263-0041","coordinate":{"latitude":35.630485,"longitude":140.097911}},{"type":0,"name":"都賀公民館","address":"千葉県千葉市稲毛区作草部2-8-53","postalCode":"263-0015","coordinate":{"latitude":35.625484,"longitude":140.117697}},{"type":0,"name":"千草台東小学校","address":"千葉県千葉市稲毛区作草部町1298-1","postalCode":"263-0014","coordinate":{"latitude":35.631669,"longitude":140.122988}},{"type":0,"name":"都賀中学校","address":"千葉県千葉市稲毛区作草部町1306-1","postalCode":"263-0014","coordinate":{"latitude":35.631022,"longitude":140.123101}},{"type":0,"name":"都賀小学校","address":"千葉県千葉市稲毛区作草部町938","postalCode":"263-0014","coordinate":{"latitude":35.629152,"longitude":140.120068}},{"type":0,"name":"山王小学校","address":"千葉県千葉市稲毛区山王町121","postalCode":"263-0002","coordinate":{"latitude":35.665341,"longitude":140.142685}},{"type":0,"name":"山王ふれあい公園","address":"千葉県千葉市稲毛区山王町182他","postalCode":"263-0002","coordinate":{"latitude":35.663613,"longitude":140.137481}},{"type":0,"name":"小中台西公園","address":"千葉県千葉市稲毛区小中台町400-1他","postalCode":"263-0044","coordinate":{"latitude":35.652251,"longitude":140.091809}},{"type":0,"name":"小園公園","address":"千葉県千葉市稲毛区小仲台4-2他","postalCode":"263-0043","coordinate":{"latitude":35.63838,"longitude":140.102413}},{"type":0,"name":"仲よし公園","address":"千葉県千葉市稲毛区小仲台5-1","postalCode":"263-0043","coordinate":{"latitude":35.63924,"longitude":140.097587}},{"type":0,"name":"県立千葉女子高等学校","address":"千葉県千葉市稲毛区小仲台5-10-1","postalCode":"263-0043","coordinate":{"latitude":35.641513,"longitude":140.100074}},{"type":0,"name":"小中台公民館","address":"千葉県千葉市稲毛区小仲台5-7-1","postalCode":"263-0043","coordinate":{"latitude":35.639361,"longitude":140.099082}},{"type":0,"name":"小中台小学校","address":"千葉県千葉市稲毛区小仲台6-34-1","postalCode":"263-0043","coordinate":{"latitude":35.639676,"longitude":140.095854}},{"type":0,"name":"小中台南小学校","address":"千葉県千葉市稲毛区小仲台8-15-1","postalCode":"263-0043","coordinate":{"latitude":35.646589,"longitude":140.089395}},{"type":0,"name":"園生小学校","address":"千葉県千葉市稲毛区小仲台9-30-1","postalCode":"263-0043","coordinate":{"latitude":35.647279,"longitude":140.097899}},{"type":0,"name":"市立千葉高等学校","address":"千葉県千葉市稲毛区小仲台9-46-1","postalCode":"263-0043","coordinate":{"latitude":35.644048,"longitude":140.099461}},{"type":0,"name":"小中台中学校","address":"千葉県千葉市稲毛区小仲台9-46-2","postalCode":"263-0043","coordinate":{"latitude":35.645896,"longitude":140.099422}},{"type":0,"name":"千草台中学校","address":"千葉県千葉市稲毛区千草台2-3-1","postalCode":"263-0013","coordinate":{"latitude":35.636797,"longitude":140.117923}},{"type":0,"name":"長沼原勤労市民プラザ","address":"千葉県千葉市稲毛区長沼原町304-1","postalCode":"263-0001","coordinate":{"latitude":35.668396,"longitude":140.129942}},{"type":0,"name":"県立千葉北高等学校","address":"千葉県千葉市稲毛区長沼町153","postalCode":"263-0005","coordinate":{"latitude":35.662191,"longitude":140.113685}},{"type":0,"name":"長沼町公園","address":"千葉県千葉市稲毛区長沼町255-1他","postalCode":"263-0005","coordinate":{"latitude":35.656597,"longitude":140.113163}},{"type":0,"name":"長沼コミュニティセンター","address":"千葉県千葉市稲毛区長沼町461-8","postalCode":"263-0005","coordinate":{"latitude":35.663381,"longitude":140.126171}},{"type":0,"name":"千草台公民館","address":"千葉県千葉市稲毛区天台3-16-5","postalCode":"263-0016","coordinate":{"latitude":35.633774,"longitude":140.1168}},{"type":0,"name":"千草台小学校","address":"千葉県千葉市稲毛区天台5-11-1","postalCode":"263-0016","coordinate":{"latitude":35.638225,"longitude":140.116007}},{"type":0,"name":"弥生小学校","address":"千葉県千葉市稲毛区弥生町3-18","postalCode":"263-0022","coordinate":{"latitude":35.625803,"longitude":140.101136}},{"type":0,"name":"緑町小学校","address":"千葉県千葉市稲毛区緑町2-13-1","postalCode":"263-0023","coordinate":{"latitude":35.623442,"longitude":140.097753}},{"type":0,"name":"緑町中学校","address":"千葉県千葉市稲毛区緑町2-3-1","postalCode":"263-0023","coordinate":{"latitude":35.622432,"longitude":140.09687}},{"type":0,"name":"山王公民館","address":"千葉県千葉市稲毛区六方町55-29","postalCode":"263-0004","coordinate":{"latitude":35.657531,"longitude":140.145563}},{"type":0,"name":"こてはし台小学校","address":"千葉県千葉市花見川区こてはし台2-28-1","postalCode":"262-0005","coordinate":{"latitude":35.687879,"longitude":140.122574}},{"type":0,"name":"こてはし台公園","address":"千葉県千葉市花見川区こてはし台4-21","postalCode":"262-0005","coordinate":{"latitude":35.687954,"longitude":140.119794}},{"type":0,"name":"こてはし台中学校","address":"千葉県千葉市花見川区こてはし台5-15-1","postalCode":"262-0005","coordinate":{"latitude":35.691687,"longitude":140.11922}},{"type":0,"name":"犢橋貝塚公園","address":"千葉県千葉市花見川区さつきが丘1-18","postalCode":"262-0014","coordinate":{"latitude":35.663686,"longitude":140.095609}},{"type":0,"name":"さつきが丘公民館","address":"千葉県千葉市花見川区さつきが丘1-32-4","postalCode":"262-0014","coordinate":{"latitude":35.665081,"longitude":140.096923}},{"type":0,"name":"さつきが丘東小学校","address":"千葉県千葉市花見川区さつきが丘1-7","postalCode":"262-0014","coordinate":{"latitude":35.663923,"longitude":140.099185}},{"type":0,"name":"神場公園","address":"千葉県千葉市花見川区さつきが丘2、畑町","postalCode":"262-0014","coordinate":{"latitude":35.670339,"longitude":140.090189}},{"type":0,"name":"さつきが丘西小学校","address":"千葉県千葉市花見川区さつきが丘2-14","postalCode":"262-0014","coordinate":{"latitude":35.667513,"longitude":140.091189}},{"type":0,"name":"さつきが丘中学校","address":"千葉県千葉市花見川区さつきが丘2-15","postalCode":"262-0014","coordinate":{"latitude":35.668038,"longitude":140.091346}},{"type":0,"name":"幕張東小学校","address":"千葉県千葉市花見川区幕張町4-681","postalCode":"262-0046","coordinate":{"latitude":35.665366,"longitude":140.058071}},{"type":0,"name":"宇那谷み春野公園","address":"千葉県千葉市花見川区み春野1-11","postalCode":"262-0003","coordinate":{"latitude":35.692294,"longitude":140.137854}},{"type":0,"name":"横戸小学校","address":"千葉県千葉市花見川区横戸町1005","postalCode":"262-0001","coordinate":{"latitude":35.696165,"longitude":140.120359}},{"type":0,"name":"こてはし台公民館","address":"千葉県千葉市花見川区横戸町861-4","postalCode":"262-0001","coordinate":{"latitude":35.692935,"longitude":140.121033}},{"type":0,"name":"花園公民館","address":"千葉県千葉市花見川区花園3-12-8","postalCode":"262-0025","coordinate":{"latitude":35.657782,"longitude":140.069651}},{"type":0,"name":"花園中学校","address":"千葉県千葉市花見川区花園4-1-1","postalCode":"262-0025","coordinate":{"latitude":35.655299,"longitude":140.074047}},{"type":0,"name":"花園小学校","address":"千葉県千葉市花見川区花園4-1-2","postalCode":"262-0025","coordinate":{"latitude":35.656337,"longitude":140.073887}},{"type":0,"name":"花見川第三小学校","address":"千葉県千葉市花見川区花見川1-1","postalCode":"262-0046","coordinate":{"latitude":35.685277,"longitude":140.088844}},{"type":0,"name":"花見川小学校","address":"千葉県千葉市花見川区花見川4-1","postalCode":"262-0046","coordinate":{"latitude":35.694152,"longitude":140.097846}},{"type":0,"name":"旧花見川第二小学校（跡施設）","address":"千葉県千葉市花見川区花見川6-1","postalCode":"262-0043","coordinate":{"latitude":35.688791,"longitude":140.101329}},{"type":0,"name":"花見川中学校","address":"千葉県千葉市花見川区花見川6-2","postalCode":"262-0046","coordinate":{"latitude":35.689048,"longitude":140.102719}},{"type":0,"name":"花島小学校","address":"千葉県千葉市花見川区花見川8-1","postalCode":"262-0046","coordinate":{"latitude":35.684275,"longitude":140.096313}},{"type":0,"name":"花島コミュニティセンター","address":"千葉県千葉市花見川区花島町308","postalCode":"262-0042","coordinate":{"latitude":35.681497,"longitude":140.096891}},{"type":0,"name":"花島公園","address":"千葉県千葉市花見川区花島町493-1","postalCode":"262-0042","coordinate":{"latitude":35.682998,"longitude":140.096972}},{"type":0,"name":"検見川小学校","address":"千葉県千葉市花見川区検見川町3-322-23","postalCode":"262-0023","coordinate":{"latitude":35.648881,"longitude":140.068613}},{"type":0,"name":"検見川公民館","address":"千葉県千葉市花見川区検見川町3-322-25","postalCode":"262-0023","coordinate":{"latitude":35.649268,"longitude":140.067343}},{"type":0,"name":"作新小学校","address":"千葉県千葉市花見川区作新台7-2-1","postalCode":"262-0045","coordinate":{"latitude":35.687734,"longitude":140.084471}},{"type":0,"name":"犢橋中学校","address":"千葉県千葉市花見川区三角町656-2","postalCode":"262-0011","coordinate":{"latitude":35.677681,"longitude":140.116991}},{"type":0,"name":"瑞穂小学校","address":"千葉県千葉市花見川区瑞穂1-2","postalCode":"262-0026","coordinate":{"latitude":35.664124,"longitude":140.069014}},{"type":0,"name":"西小中台小学校","address":"千葉県千葉市花見川区西小中台3-1","postalCode":"262-0016","coordinate":{"latitude":35.650972,"longitude":140.086281}},{"type":0,"name":"県立犢橋高等学校","address":"千葉県千葉市花見川区千種町381-1","postalCode":"262-0012","coordinate":{"latitude":35.678105,"longitude":140.120609}},{"type":0,"name":"朝日ヶ丘公民館","address":"千葉県千葉市花見川区朝日ヶ丘1-1-30","postalCode":"262-0017","coordinate":{"latitude":35.655571,"longitude":140.08917}},{"type":0,"name":"朝日ヶ丘中学校","address":"千葉県千葉市花見川区朝日ヶ丘2-4-1","postalCode":"262-0017","coordinate":{"latitude":35.656489,"longitude":140.087576}},{"type":0,"name":"朝日ヶ丘小学校","address":"千葉県千葉市花見川区朝日ヶ丘2-6-1","postalCode":"262-0017","coordinate":{"latitude":35.659229,"longitude":140.085505}},{"type":0,"name":"長作小学校","address":"千葉県千葉市花見川区長作町1273","postalCode":"262-0044","coordinate":{"latitude":35.684214,"longitude":140.073743}},{"type":0,"name":"長作公民館","address":"千葉県千葉市花見川区長作町1722-1","postalCode":"262-0044","coordinate":{"latitude":35.680342,"longitude":140.079025}},{"type":0,"name":"旧花見川第二中学校（跡施設）","address":"千葉県千葉市花見川区天戸町1428-1","postalCode":"262-0043","coordinate":{"latitude":35.682765,"longitude":140.087811}},{"type":0,"name":"天戸中学校","address":"千葉県千葉市花見川区天戸町1429","postalCode":"262-0043","coordinate":{"latitude":35.681448,"longitude":140.087113}},{"type":0,"name":"柏井小学校","address":"千葉県千葉市花見川区柏井4-48-1","postalCode":"262-0041","coordinate":{"latitude":35.708785,"longitude":140.106365}},{"type":0,"name":"県立柏井高等学校","address":"千葉県千葉市花見川区柏井町1452","postalCode":"262-0041","coordinate":{"latitude":35.698184,"longitude":140.107442}},{"type":0,"name":"花見川公民館","address":"千葉県千葉市花見川区柏井町1590-8","postalCode":"262-0041","coordinate":{"latitude":35.695591,"longitude":140.099679}},{"type":0,"name":"畑コミュニティセンター","address":"千葉県千葉市花見川区畑町1336-2","postalCode":"262-0018","coordinate":{"latitude":35.666976,"longitude":140.079314}},{"type":0,"name":"畑小学校","address":"千葉県千葉市花見川区畑町1385-1","postalCode":"262-0018","coordinate":{"latitude":35.665423,"longitude":140.078677}},{"type":0,"name":"幕張舟溜跡公園","address":"千葉県千葉市花見川区幕張町3","postalCode":"262-0032","coordinate":{"latitude":35.657559,"longitude":140.048832}},{"type":0,"name":"幕張南小学校","address":"千葉県千葉市花見川区幕張町3-7718","postalCode":"262-0032","coordinate":{"latitude":35.657064,"longitude":140.047183}},{"type":0,"name":"幕張コミュニティセンター","address":"千葉県千葉市花見川区幕張町3-7730-4","postalCode":"262-0032","coordinate":{"latitude":35.656515,"longitude":140.047597}},{"type":0,"name":"幕張中学校","address":"千葉県千葉市花見川区幕張町4-45","postalCode":"262-0032","coordinate":{"latitude":35.662916,"longitude":140.059058}},{"type":0,"name":"幕張公民館","address":"千葉県千葉市花見川区幕張町4-602","postalCode":"262-0032","coordinate":{"latitude":35.660265,"longitude":140.055428}},{"type":0,"name":"幕張小学校","address":"千葉県千葉市花見川区幕張町4-781","postalCode":"262-0032","coordinate":{"latitude":35.661884,"longitude":140.053739}},{"type":0,"name":"幕張本郷公民館","address":"千葉県千葉市花見川区幕張本郷2-19-33","postalCode":"262-0033","coordinate":{"latitude":35.66819,"longitude":140.03917}},{"type":0,"name":"一本松公園","address":"千葉県千葉市花見川区幕張本郷2-33","postalCode":"262-0033","coordinate":{"latitude":35.668831,"longitude":140.042077}},{"type":0,"name":"西の谷小学校","address":"千葉県千葉市花見川区幕張本郷3-22-6","postalCode":"262-0033","coordinate":{"latitude":35.666154,"longitude":140.04597}},{"type":0,"name":"上の台小学校","address":"千葉県千葉市花見川区幕張本郷4-8-1","postalCode":"262-0033","coordinate":{"latitude":35.668121,"longitude":140.050455}},{"type":0,"name":"幕張本郷中学校","address":"千葉県千葉市花見川区幕張本郷5-18-1","postalCode":"262-0033","coordinate":{"latitude":35.671886,"longitude":140.04763}},{"type":0,"name":"幕張台公園","address":"千葉県千葉市花見川区幕張本郷7-23","postalCode":"262-0033","coordinate":{"latitude":35.674666,"longitude":140.04878}},{"type":0,"name":"犢橋公民館","address":"千葉県千葉市花見川区犢橋町162-1","postalCode":"262-0013","coordinate":{"latitude":35.66681,"longitude":140.1136}},{"type":0,"name":"緑が丘中学校","address":"千葉県千葉市花見川区犢橋町213-4","postalCode":"262-0013","coordinate":{"latitude":35.664324,"longitude":140.111212}},{"type":0,"name":"犢橋小学校","address":"千葉県千葉市花見川区犢橋町774","postalCode":"262-0013","coordinate":{"latitude":35.67297,"longitude":140.108168}},{"type":0,"name":"更科小学校","address":"千葉県千葉市若葉区更科町2073","postalCode":"265-0041","coordinate":{"latitude":35.619293,"longitude":140.228021}},{"type":0,"name":"都賀コミュニティセンター","address":"千葉県千葉市若葉区都賀4-20-1","postalCode":"264-0023","coordinate":{"latitude":35.634316,"longitude":140.154666}},{"type":0,"name":"みつわ台南小学校","address":"千葉県千葉市若葉区みつわ台1-17-1","postalCode":"264-0032","coordinate":{"latitude":35.634603,"longitude":140.130816}},{"type":0,"name":"みつわ台第1公園","address":"千葉県千葉市若葉区みつわ台1-18","postalCode":"264-0032","coordinate":{"latitude":35.634897,"longitude":140.13248}},{"type":0,"name":"みつわ台公園","address":"千葉県千葉市若葉区みつわ台1-28","postalCode":"264-0032","coordinate":{"latitude":35.6308,"longitude":140.131042}},{"type":0,"name":"みつわ台中学校","address":"千葉県千葉市若葉区みつわ台2-41-1","postalCode":"264-0032","coordinate":{"latitude":35.635307,"longitude":140.13119}},{"type":0,"name":"みつわ台公民館","address":"千葉県千葉市若葉区みつわ台3-12-17","postalCode":"264-0032","coordinate":{"latitude":35.639241,"longitude":140.135506}},{"type":0,"name":"みつわ台第2公園","address":"千葉県千葉市若葉区みつわ台3-2","postalCode":"264-0032","coordinate":{"latitude":35.641375,"longitude":140.134925}},{"type":0,"name":"みつわ台体育館","address":"千葉県千葉市若葉区みつわ台3-3-1","postalCode":"264-0032","coordinate":{"latitude":35.640936,"longitude":140.13626}},{"type":0,"name":"みつわ台北小学校","address":"千葉県千葉市若葉区みつわ台3-5-1","postalCode":"264-0032","coordinate":{"latitude":35.642034,"longitude":140.137846}},{"type":0,"name":"愛生運動広場","address":"千葉県千葉市若葉区愛生町102-1","postalCode":"264-0031","coordinate":{"latitude":35.653887,"longitude":140.13272}},{"type":0,"name":"旧更科小学校下田分校","address":"千葉県千葉市若葉区下田町573","postalCode":"265-0076","coordinate":{"latitude":35.640009,"longitude":140.214694}},{"type":0,"name":"県立桜が丘特別支援学校","address":"千葉県千葉市若葉区加曽利町1538","postalCode":"264-0017","coordinate":{"latitude":35.614322,"longitude":140.1689}},{"type":0,"name":"加曽利公民館","address":"千葉県千葉市若葉区加曽利町892-6","postalCode":"264-0017","coordinate":{"latitude":35.612151,"longitude":140.152058}},{"type":0,"name":"加曽利中学校","address":"千葉県千葉市若葉区加曽利町961-5","postalCode":"264-0017","coordinate":{"latitude":35.613952,"longitude":140.157619}},{"type":0,"name":"貝塚中学校","address":"千葉県千葉市若葉区貝塚1-7-1","postalCode":"264-0023","coordinate":{"latitude":35.624021,"longitude":140.15347}},{"type":0,"name":"北貝塚小学校","address":"千葉県千葉市若葉区貝塚町1093","postalCode":"264-0023","coordinate":{"latitude":35.628665,"longitude":140.145034}},{"type":0,"name":"源小学校","address":"千葉県千葉市若葉区源町541-6","postalCode":"264-0037","coordinate":{"latitude":35.648724,"longitude":140.131757}},{"type":0,"name":"御成台公園","address":"千葉県千葉市若葉区御成台3-1182-2他","postalCode":"265-0077","coordinate":{"latitude":35.636263,"longitude":140.200829}},{"type":0,"name":"更科中学校","address":"千葉県千葉市若葉区更科町2112","postalCode":"265-0073","coordinate":{"latitude":35.617657,"longitude":140.226416}},{"type":0,"name":"更科公民館","address":"千葉県千葉市若葉区更科町2254-1","postalCode":"265-0073","coordinate":{"latitude":35.6178,"longitude":140.227794}},{"type":0,"name":"県立泉高等学校","address":"千葉県千葉市若葉区高根町875-1","postalCode":"265-0061","coordinate":{"latitude":35.602155,"longitude":140.210218}},{"type":0,"name":"坂月小学校","address":"千葉県千葉市若葉区坂月町298","postalCode":"264-0012","coordinate":{"latitude":35.612023,"longitude":140.18158}},{"type":0,"name":"桜木公園","address":"千葉県千葉市若葉区桜木1-423","postalCode":"264-0022","coordinate":{"latitude":35.620832,"longitude":140.15264}},{"type":0,"name":"桜木公民館","address":"千葉県千葉市若葉区桜木3-17-29","postalCode":"264-0022","coordinate":{"latitude":35.622766,"longitude":140.160381}},{"type":0,"name":"桜木小学校","address":"千葉県千葉市若葉区桜木3-26-1","postalCode":"264-0022","coordinate":{"latitude":35.621105,"longitude":140.159517}},{"type":0,"name":"若松台小学校","address":"千葉県千葉市若葉区若松台2-25-1","postalCode":"264-0021","coordinate":{"latitude":35.649861,"longitude":140.171906}},{"type":0,"name":"若松中学校","address":"千葉県千葉市若葉区若松町2106-2","postalCode":"264-0021","coordinate":{"latitude":35.635795,"longitude":140.169846}},{"type":0,"name":"若松公民館","address":"千葉県千葉市若葉区若松町2117-2","postalCode":"264-0021","coordinate":{"latitude":35.635095,"longitude":140.167547}},{"type":0,"name":"若松小学校","address":"千葉県千葉市若葉区若松町360-1","postalCode":"264-0021","coordinate":{"latitude":35.640785,"longitude":140.16792}},{"type":0,"name":"県立若松高等学校","address":"千葉県千葉市若葉区若松町429","postalCode":"264-0021","coordinate":{"latitude":35.644031,"longitude":140.159173}},{"type":0,"name":"山王中学校","address":"千葉県千葉市若葉区若松町774","postalCode":"264-0021","coordinate":{"latitude":35.653051,"longitude":140.142673}},{"type":0,"name":"小倉台公園","address":"千葉県千葉市若葉区小倉台4-7","postalCode":"264-0006","coordinate":{"latitude":35.629289,"longitude":140.170582}},{"type":0,"name":"小倉小学校","address":"千葉県千葉市若葉区小倉台5-1-1","postalCode":"264-0006","coordinate":{"latitude":35.631903,"longitude":140.173037}},{"type":0,"name":"千城台西公園","address":"千葉県千葉市若葉区千城台西1-15","postalCode":"264-0004","coordinate":{"latitude":35.622646,"longitude":140.180398}},{"type":0,"name":"県立千城台高等学校","address":"千葉県千葉市若葉区千城台西2-1-1","postalCode":"264-0004","coordinate":{"latitude":35.62161,"longitude":140.188093}},{"type":0,"name":"千城台公民館","address":"千葉県千葉市若葉区千城台西2-1-1","postalCode":"264-0004","coordinate":{"latitude":35.622318,"longitude":140.187309}},{"type":0,"name":"千城台コミュニティセンター","address":"千葉県千葉市若葉区千城台西2-1-1","postalCode":"264-0004","coordinate":{"latitude":35.621971,"longitude":140.186443}},{"type":0,"name":"千城台西中学校","address":"千葉県千葉市若葉区千城台西2-20-1","postalCode":"264-0004","coordinate":{"latitude":35.621598,"longitude":140.18464}},{"type":0,"name":"千城台西小学校","address":"千葉県千葉市若葉区千城台西2-21-1","postalCode":"264-0004","coordinate":{"latitude":35.622764,"longitude":140.182551}},{"type":0,"name":"千城台東小学校","address":"千葉県千葉市若葉区千城台東1-15-1","postalCode":"264-0002","coordinate":{"latitude":35.62234,"longitude":140.191512}},{"type":0,"name":"御成公園","address":"千葉県千葉市若葉区千城台東2-45","postalCode":"264-0002","coordinate":{"latitude":35.623414,"longitude":140.196631}},{"type":0,"name":"千城台旭小学校","address":"千葉県千葉市若葉区千城台東3-18-1","postalCode":"264-0002","coordinate":{"latitude":35.61735,"longitude":140.195927}},{"type":0,"name":"千城台南小学校","address":"千葉県千葉市若葉区千城台南1-19-1","postalCode":"264-0003","coordinate":{"latitude":35.618273,"longitude":140.189326}},{"type":0,"name":"千城台南中学校","address":"千葉県千葉市若葉区千城台南1-20-1","postalCode":"264-0003","coordinate":{"latitude":35.618688,"longitude":140.190774}},{"type":0,"name":"千城台北小学校","address":"千葉県千葉市若葉区千城台北1-4-1","postalCode":"264-0005","coordinate":{"latitude":35.628698,"longitude":140.18372}},{"type":0,"name":"城北公園","address":"千葉県千葉市若葉区千城台北2-1","postalCode":"264-0005","coordinate":{"latitude":35.627451,"longitude":140.186412}},{"type":0,"name":"大宮小学校","address":"千葉県千葉市若葉区大宮台7-8-1","postalCode":"264-0015","coordinate":{"latitude":35.596181,"longitude":140.182235}},{"type":0,"name":"市立養護学校","address":"千葉県千葉市若葉区大宮町1066-1","postalCode":"264-0016","coordinate":{"latitude":35.59769,"longitude":140.166978}},{"type":0,"name":"大宮中学校","address":"千葉県千葉市若葉区大宮町2077","postalCode":"264-0016","coordinate":{"latitude":35.586326,"longitude":140.186714}},{"type":0,"name":"大宮台小学校","address":"千葉県千葉市若葉区大宮町2082","postalCode":"264-0016","coordinate":{"latitude":35.585079,"longitude":140.186184}},{"type":0,"name":"千城小学校","address":"千葉県千葉市若葉区大宮町2655","postalCode":"264-0016","coordinate":{"latitude":35.600051,"longitude":140.168745}},{"type":0,"name":"県立千葉大宮高等学校","address":"千葉県千葉市若葉区大宮町2699-1","postalCode":"264-0016","coordinate":{"latitude":35.602702,"longitude":140.169997}},{"type":0,"name":"大宮公民館","address":"千葉県千葉市若葉区大宮町3221-2","postalCode":"264-0016","coordinate":{"latitude":35.596559,"longitude":140.181029}},{"type":0,"name":"千葉刑務所","address":"千葉県千葉市若葉区貝塚町192","postalCode":"231-1191","coordinate":{"latitude":35.615433,"longitude":140.13377}},{"type":0,"name":"美しの森公園","address":"千葉県千葉市若葉区都賀2-5","postalCode":"264-0025","coordinate":{"latitude":35.6342,"longitude":140.147444}},{"type":0,"name":"都賀の台小学校","address":"千葉県千葉市若葉区都賀の台2-13-1","postalCode":"264-0033","coordinate":{"latitude":35.643833,"longitude":140.141663}},{"type":0,"name":"更科小学校富田分校","address":"千葉県千葉市若葉区富田町83","postalCode":"265-0041","coordinate":{"latitude":35.600151,"longitude":140.237718}},{"type":0,"name":"白井小学校","address":"千葉県千葉市若葉区野呂町215","postalCode":"265-0053","coordinate":{"latitude":35.580907,"longitude":140.230974}},{"type":0,"name":"白井公民館","address":"千葉県千葉市若葉区野呂町622-10","postalCode":"265-0053","coordinate":{"latitude":35.58389792,"longitude":140.2302786}},{"type":0,"name":"白井中学校","address":"千葉県千葉市若葉区野呂町623","postalCode":"265-0053","coordinate":{"latitude":35.587526,"longitude":140.225637}},{"type":0,"name":"生浜西小学校","address":"千葉県千葉市中央区塩田町316-1","postalCode":"260-0823","coordinate":{"latitude":35.558963,"longitude":140.131289}},{"type":0,"name":"県立生浜高等学校","address":"千葉県千葉市中央区塩田町372","postalCode":"260-0823","coordinate":{"latitude":35.560683,"longitude":140.129611}},{"type":0,"name":"県立千葉南高等学校","address":"千葉県千葉市中央区花輪町45-3","postalCode":"260-0803","coordinate":{"latitude":35.576886,"longitude":140.163589}},{"type":0,"name":"県立千葉高等学校","address":"千葉県千葉市中央区葛城1-5-2","postalCode":"260-0853","coordinate":{"latitude":35.599997,"longitude":140.128396}},{"type":0,"name":"葛城中学校","address":"千葉県千葉市中央区葛城2-9-1","postalCode":"260-0853","coordinate":{"latitude":35.600871,"longitude":140.131033}},{"type":0,"name":"葛城公民館","address":"千葉県千葉市中央区葛城2-9-2","postalCode":"260-0853","coordinate":{"latitude":35.59964,"longitude":140.130897}},{"type":0,"name":"寒川小学校","address":"千葉県千葉市中央区寒川町1-205","postalCode":"260-0832","coordinate":{"latitude":35.597317,"longitude":140.121804}},{"type":0,"name":"宮崎小学校","address":"千葉県千葉市中央区宮崎2-3-13","postalCode":"260-0806","coordinate":{"latitude":35.583663,"longitude":140.136586}},{"type":0,"name":"菰池公園","address":"千葉県千葉市中央区宮崎2-4","postalCode":"260-0806","coordinate":{"latitude":35.583298,"longitude":140.135199}},{"type":0,"name":"宮崎公民館","address":"千葉県千葉市中央区宮崎2-5-22","postalCode":"260-0806","coordinate":{"latitude":35.580616,"longitude":140.136829}},{"type":0,"name":"蘇我コミュニティセンター","address":"千葉県千葉市中央区今井1-14-43","postalCode":"260-0834","coordinate":{"latitude":35.583746,"longitude":140.129181}},{"type":0,"name":"蘇我小学校","address":"千葉県千葉市中央区今井3-15-32","postalCode":"260-0834","coordinate":{"latitude":35.578211,"longitude":140.131263}},{"type":0,"name":"県立千葉工業高等学校","address":"千葉県千葉市中央区今井町1478","postalCode":"260-0815","coordinate":{"latitude":35.57154,"longitude":140.141141}},{"type":0,"name":"羽衣公園","address":"千葉県千葉市中央区市場町1-1","postalCode":"260-0855","coordinate":{"latitude":35.603849,"longitude":140.122585}},{"type":0,"name":"松ヶ丘公民館","address":"千葉県千葉市中央区松ヶ丘町257-2","postalCode":"260-0807","coordinate":{"latitude":35.588168,"longitude":140.151861}},{"type":0,"name":"松ケ丘中学校","address":"千葉県千葉市中央区松ヶ丘町440","postalCode":"260-0807","coordinate":{"latitude":35.587721,"longitude":140.152469}},{"type":0,"name":"松ケ丘小学校","address":"千葉県千葉市中央区松ヶ丘町580","postalCode":"260-0807","coordinate":{"latitude":35.586438,"longitude":140.155405}},{"type":0,"name":"県立千葉商業高等学校","address":"千葉県千葉市中央区松波2-22-48","postalCode":"260-0044","coordinate":{"latitude":35.621103,"longitude":140.107925}},{"type":0,"name":"新宿小学校","address":"千葉県千葉市中央区新宿2-15-1","postalCode":"260-0021","coordinate":{"latitude":35.607909,"longitude":140.114303}},{"type":0,"name":"新宿公民館","address":"千葉県千葉市中央区新宿2-16-14","postalCode":"260-0021","coordinate":{"latitude":35.606858,"longitude":140.113776}},{"type":0,"name":"仁戸名小学校","address":"千葉県千葉市中央区仁戸名町380","postalCode":"260-0801","coordinate":{"latitude":35.59256,"longitude":140.158669}},{"type":0,"name":"星久喜小学校","address":"千葉県千葉市中央区星久喜町1060","postalCode":"260-0808","coordinate":{"latitude":35.596806,"longitude":140.146688}},{"type":0,"name":"都市緑化植物園","address":"千葉県千葉市中央区星久喜町278","postalCode":"260-0808","coordinate":{"latitude":35.601812,"longitude":140.151577}},{"type":0,"name":"星久喜公民館","address":"千葉県千葉市中央区星久喜町615-7","postalCode":"260-0808","coordinate":{"latitude":35.597701,"longitude":140.151177}},{"type":0,"name":"星久喜中学校     ","address":"千葉県千葉市中央区星久喜町823","postalCode":"260-0808","coordinate":{"latitude":35.600845,"longitude":140.152051}},{"type":0,"name":"生浜東小学校","address":"千葉県千葉市中央区生実町1928","postalCode":"260-0813","coordinate":{"latitude":35.559876,"longitude":140.147935}},{"type":0,"name":"生浜公民館","address":"千葉県千葉市中央区生実町67-1","postalCode":"260-0813","coordinate":{"latitude":35.559637,"longitude":140.14177}},{"type":0,"name":"千葉市ハーモニープラザ","address":"千葉県千葉市中央区千葉寺町1208-2","postalCode":"260-0844","coordinate":{"latitude":35.59465,"longitude":140.134677}},{"type":0,"name":"川戸公民館","address":"千葉県千葉市中央区川戸町403-1","postalCode":"260-0802","coordinate":{"latitude":35.581942,"longitude":140.166883}},{"type":0,"name":"川戸中学校","address":"千葉県千葉市中央区川戸町443","postalCode":"260-0802","coordinate":{"latitude":35.584003,"longitude":140.167873}},{"type":0,"name":"川戸小学校","address":"千葉県千葉市中央区川戸町450","postalCode":"260-0802","coordinate":{"latitude":35.584782,"longitude":140.167967}},{"type":0,"name":"そが野ふれあい公園","address":"千葉県千葉市中央区蘇我町2","postalCode":"260-0822","coordinate":{"latitude":35.57072,"longitude":140.134863}},{"type":0,"name":"大巌寺小学校","address":"千葉県千葉市中央区大巌寺町375","postalCode":"260-0812","coordinate":{"latitude":35.573157,"longitude":140.149072}},{"type":0,"name":"大森小学校","address":"千葉県千葉市中央区大森町268","postalCode":"260-0811","coordinate":{"latitude":35.580623,"longitude":140.144476}},{"type":0,"name":"子ども交流館","address":"千葉県千葉市中央区中央4-5-1","postalCode":"260-0013","coordinate":{"latitude":35.607396,"longitude":140.122887}},{"type":0,"name":"子育て支援館","address":"千葉県千葉市中央区中央4-5-1","postalCode":"260-0013","coordinate":{"latitude":35.607405,"longitude":140.122893}},{"type":0,"name":"千葉市科学館","address":"千葉県千葉市中央区中央4-5-1","postalCode":"260-0013","coordinate":{"latitude":35.607405,"longitude":140.122899}},{"type":0,"name":"椿森中学校","address":"千葉県千葉市中央区椿森4-1-1","postalCode":"260-0042","coordinate":{"latitude":35.622409,"longitude":140.120766}},{"type":0,"name":"椿森公民館","address":"千葉県千葉市中央区椿森6-1-11","postalCode":"260-0042","coordinate":{"latitude":35.620126,"longitude":140.123848}},{"type":0,"name":"鶴沢小学校","address":"千葉県千葉市中央区鶴沢町21-1","postalCode":"260-0003","coordinate":{"latitude":35.60987,"longitude":140.133712}},{"type":0,"name":"登戸小学校","address":"千葉県千葉市中央区登戸2-11-1","postalCode":"260-0032","coordinate":{"latitude":35.612438,"longitude":140.107616}},{"type":0,"name":"都小学校","address":"千葉県千葉市中央区都町1129","postalCode":"260-0001","coordinate":{"latitude":35.612507,"longitude":140.144835}},{"type":0,"name":"都公園","address":"千葉県千葉市中央区都町2-14","postalCode":"260-0001","coordinate":{"latitude":35.61138,"longitude":140.138799}},{"type":0,"name":"千葉明徳学園","address":"千葉県千葉市中央区南生実町1412","postalCode":"260-0814","coordinate":{"latitude":35.560637,"longitude":140.154581}},{"type":0,"name":"生浜中学校","address":"千葉県千葉市中央区南生実町258","postalCode":"260-0814","coordinate":{"latitude":35.557209,"longitude":140.144112}},{"type":0,"name":"南部青少年センタ－","address":"千葉県千葉市中央区白旗1-3-16","postalCode":"260-0841","coordinate":{"latitude":35.579056,"longitude":140.138547}},{"type":0,"name":"蘇我中学校","address":"千葉県千葉市中央区白旗1-5-3","postalCode":"260-0841","coordinate":{"latitude":35.577268,"longitude":140.138018}},{"type":0,"name":"生浜小学校","address":"千葉県千葉市中央区浜野町1335","postalCode":"260-0824","coordinate":{"latitude":35.559479,"longitude":140.140508}},{"type":0,"name":"弁天小学校","address":"千葉県千葉市中央区弁天1-21-2","postalCode":"260-0045","coordinate":{"latitude":35.616491,"longitude":140.112619}},{"type":0,"name":"本町小学校","address":"千葉県千葉市中央区本町2-6-23","postalCode":"260-0012","coordinate":{"latitude":35.60932,"longitude":140.128119}},{"type":0,"name":"末広中学校","address":"千葉県千葉市中央区末広2-10-1","postalCode":"260-0843","coordinate":{"latitude":35.596786,"longitude":140.126615}},{"type":0,"name":"末広公民館","address":"千葉県千葉市中央区末広3-2-2","postalCode":"260-0843","coordinate":{"latitude":35.593978,"longitude":140.125234}},{"type":0,"name":"千葉ポートアリーナ","address":"千葉県千葉市中央区問屋町1-20","postalCode":"260-0025","coordinate":{"latitude":35.602902,"longitude":140.111797}},{"type":0,"name":"新宿中学校","address":"千葉県千葉市中央区問屋町1-73","postalCode":"260-0025","coordinate":{"latitude":35.604404,"longitude":140.109207}},{"type":0,"name":"院内小学校","address":"千葉県千葉市中央区祐光1-25-3","postalCode":"260-0007","coordinate":{"latitude":35.615512,"longitude":140.125796}},{"type":0,"name":"市民会館","address":"千葉県千葉市中央区要町1-1","postalCode":"260-0017","coordinate":{"latitude":35.615425,"longitude":140.120277}},{"type":0,"name":"磯辺第三小学校","address":"千葉県千葉市美浜区磯辺1-25-1","postalCode":"261-0012","coordinate":{"latitude":35.630095,"longitude":140.064158}},{"type":0,"name":"磯辺公園","address":"千葉県千葉市美浜区磯辺1-26","postalCode":"261-0012","coordinate":{"latitude":35.629576,"longitude":140.064257}},{"type":0,"name":"磯辺公民館","address":"千葉県千葉市美浜区磯辺1-48-1","postalCode":"261-0012","coordinate":{"latitude":35.628198,"longitude":140.061779}},{"type":0,"name":"県立磯辺高等学校","address":"千葉県千葉市美浜区磯辺2-7-1","postalCode":"261-0012","coordinate":{"latitude":35.62603,"longitude":140.058344}},{"type":0,"name":"磯辺スポーツセンター","address":"千葉県千葉市美浜区磯辺1-50-1","postalCode":"261-0012","coordinate":{"latitude":35.627547,"longitude":140.062442}},{"type":0,"name":"県立千葉西高等学校","address":"千葉県千葉市美浜区磯辺3-30-3","postalCode":"261-0012","coordinate":{"latitude":35.627413,"longitude":140.053344}},{"type":0,"name":"磯辺小学校","address":"千葉県千葉市美浜区磯辺4-16-1","postalCode":"261-0012","coordinate":{"latitude":35.631764,"longitude":140.058101}},{"type":0,"name":"中磯辺公園","address":"千葉県千葉市美浜区磯辺4-27","postalCode":"261-0012","coordinate":{"latitude":35.630053,"longitude":140.056224}},{"type":0,"name":"北磯辺公園","address":"千葉県千葉市美浜区磯辺6-4","postalCode":"261-0012","coordinate":{"latitude":35.636885,"longitude":140.054818}},{"type":0,"name":"磯辺中学校","address":"千葉県千葉市美浜区磯辺7-1-1","postalCode":"261-0012","coordinate":{"latitude":35.632514,"longitude":140.053963}},{"type":0,"name":"稲浜小学校","address":"千葉県千葉市美浜区稲毛海岸2-3-2","postalCode":"261-0005","coordinate":{"latitude":35.629948,"longitude":140.084343}},{"type":0,"name":"稲浜中学校","address":"千葉県千葉市美浜区稲毛海岸2-3-3","postalCode":"261-0005","coordinate":{"latitude":35.632781,"longitude":140.081805}},{"type":0,"name":"稲浜公民館","address":"千葉県千葉市美浜区稲毛海岸3-4-1","postalCode":"261-0005","coordinate":{"latitude":35.631989,"longitude":140.079466}},{"type":0,"name":"稲毛第二小学校","address":"千葉県千葉市美浜区稲毛海岸5-7-1","postalCode":"261-0005","coordinate":{"latitude":35.636881,"longitude":140.075339}},{"type":0,"name":"幸町第三小学校","address":"千葉県千葉市美浜区幸町1-10-1","postalCode":"261-0001","coordinate":{"latitude":35.61127,"longitude":140.099009}},{"type":0,"name":"幸町第二中学校","address":"千葉県千葉市美浜区幸町1-10-2","postalCode":"261-0001","coordinate":{"latitude":35.612579,"longitude":140.098057}},{"type":0,"name":"幸町小学校","address":"千葉県千葉市美浜区幸町2-12-12","postalCode":"261-0001","coordinate":{"latitude":35.621654,"longitude":140.090536}},{"type":0,"name":"幸町公民館","address":"千葉県千葉市美浜区幸町2-12-14","postalCode":"261-0001","coordinate":{"latitude":35.620676,"longitude":140.092358}},{"type":0,"name":"幸町第一中学校","address":"千葉県千葉市美浜区幸町2-12-7","postalCode":"261-0001","coordinate":{"latitude":35.621181,"longitude":140.090026}},{"type":0,"name":"旧幸町第一小学校（跡施設）","address":"千葉県千葉市美浜区幸町2-17-4","postalCode":"261-0001","coordinate":{"latitude":35.624268,"longitude":140.088305}},{"type":0,"name":"旧幸町第二小学校（跡施設）","address":"千葉県千葉市美浜区幸町2-9-4","postalCode":"261-0001","coordinate":{"latitude":35.617929,"longitude":140.095016}},{"type":0,"name":"高洲第四小学校","address":"千葉県千葉市美浜区高洲1-15-1","postalCode":"261-0004","coordinate":{"latitude":35.630763,"longitude":140.077952}},{"type":0,"name":"高洲小学校","address":"千葉県千葉市美浜区高洲2-2-20","postalCode":"261-0004","coordinate":{"latitude":35.625053,"longitude":140.079808}},{"type":0,"name":"高洲第一中学校","address":"千葉県千葉市美浜区高洲2-3-18","postalCode":"261-0004","coordinate":{"latitude":35.623245,"longitude":140.077441}},{"type":0,"name":"高洲コミュニティセンター","address":"千葉県千葉市美浜区高洲3-12-1","postalCode":"261-0004","coordinate":{"latitude":35.626992,"longitude":140.071044}},{"type":0,"name":"高洲公園","address":"千葉県千葉市美浜区高洲3-2","postalCode":"261-0004","coordinate":{"latitude":35.627677,"longitude":140.075871}},{"type":0,"name":"高洲第三小学校","address":"千葉県千葉市美浜区高洲3-3-11","postalCode":"261-0004","coordinate":{"latitude":35.626726,"longitude":140.074168}},{"type":0,"name":"高洲スポーツセンター","address":"千葉県千葉市美浜区高洲4-2-2","postalCode":"261-0004","coordinate":{"latitude":35.633553,"longitude":140.075261}},{"type":0,"name":"高洲第二中学校","address":"千葉県千葉市美浜区高洲4-4-3","postalCode":"261-0004","coordinate":{"latitude":35.632562,"longitude":140.071747}},{"type":0,"name":"高浜第一小学校","address":"千葉県千葉市美浜区高浜1-4-1","postalCode":"261-0003","coordinate":{"latitude":35.61987,"longitude":140.075894}},{"type":0,"name":"高浜公園","address":"千葉県千葉市美浜区高浜1-8","postalCode":"261-0003","coordinate":{"latitude":35.619688,"longitude":140.073705}},{"type":0,"name":"高浜公民館","address":"千葉県千葉市美浜区高浜1-8-3","postalCode":"261-0003","coordinate":{"latitude":35.620207,"longitude":140.073378}},{"type":0,"name":"市立稲毛高等学校・同附属中学校","address":"千葉県千葉市美浜区高浜3-1-1","postalCode":"261-0003","coordinate":{"latitude":35.620401,"longitude":140.068525}},{"type":0,"name":"南高浜公園","address":"千葉県千葉市美浜区高浜3-2","postalCode":"261-0003","coordinate":{"latitude":35.619646,"longitude":140.064675}},{"type":0,"name":"中高浜公園","address":"千葉県千葉市美浜区高浜4-6","postalCode":"261-0003","coordinate":{"latitude":35.622147,"longitude":140.068302}},{"type":0,"name":"高浜中学校","address":"千葉県千葉市美浜区高浜4-8-1","postalCode":"261-0003","coordinate":{"latitude":35.623768,"longitude":140.070887}},{"type":0,"name":"高浜海浜小学校","address":"千葉県千葉市美浜区高浜4-8-2","postalCode":"261-0003","coordinate":{"latitude":35.623464,"longitude":140.069654}},{"type":0,"name":"北高浜公園","address":"千葉県千葉市美浜区高浜5-19","postalCode":"261-0003","coordinate":{"latitude":35.626027,"longitude":140.063724}},{"type":0,"name":"県立幕張総合高等学校（看護科校舎）","address":"千葉県千葉市美浜区若葉2-10-2","postalCode":"261-0014","coordinate":{"latitude":35.651476,"longitude":140.054039}},{"type":0,"name":"県立幕張総合高等学校","address":"千葉県千葉市美浜区若葉3-1-6","postalCode":"261-0014","coordinate":{"latitude":35.647831,"longitude":140.052809}},{"type":0,"name":"幕張勤労市民プラザ","address":"千葉県千葉市美浜区若葉3-1-8","postalCode":"261-0014","coordinate":{"latitude":35.648923,"longitude":140.050262}},{"type":0,"name":"真砂公園","address":"千葉県千葉市美浜区真砂1-11","postalCode":"261-0011","coordinate":{"latitude":35.634192,"longitude":140.069079}},{"type":0,"name":"真砂第五小学校","address":"千葉県千葉市美浜区真砂1-12-15","postalCode":"261-0011","coordinate":{"latitude":35.632619,"longitude":140.069148}},{"type":0,"name":"真砂東小学校","address":"千葉県千葉市美浜区真砂2-13-1","postalCode":"261-0011","coordinate":{"latitude":35.637802,"longitude":140.06691}},{"type":0,"name":"真砂コミュニティセンター","address":"千葉県千葉市美浜区真砂2-3-1","postalCode":"261-0011","coordinate":{"latitude":35.6404,"longitude":140.069187}},{"type":0,"name":"県立検見川高等学校","address":"千葉県千葉市美浜区真砂4-17-1","postalCode":"261-0011","coordinate":{"latitude":35.640109,"longitude":140.056873}},{"type":0,"name":"真砂西小学校","address":"千葉県千葉市美浜区真砂4-5-1","postalCode":"261-0011","coordinate":{"latitude":35.642633,"longitude":140.059097}},{"type":0,"name":"市立高等特別支援学校","address":"千葉県千葉市美浜区真砂5-18-1","postalCode":"261-0011","coordinate":{"latitude":35.644017,"longitude":140.061599}},{"type":0,"name":"真砂中学校","address":"千葉県千葉市美浜区真砂5-18-2","postalCode":"261-0011","coordinate":{"latitude":35.645222,"longitude":140.063106}},{"type":0,"name":"打瀬小学校","address":"千葉県千葉市美浜区打瀬1-3-1","postalCode":"261-0013","coordinate":{"latitude":35.642022,"longitude":140.047293}},{"type":0,"name":"打瀬公民館","address":"千葉県千葉市美浜区打瀬2-13","postalCode":"261-0013","coordinate":{"latitude":35.63969,"longitude":140.046688}},{"type":0,"name":"美浜打瀬小学校","address":"千葉県千葉市美浜区打瀬2-18-1","postalCode":"261-0013","coordinate":{"latitude":35.6380514,"longitude":140.0447194}},{"type":0,"name":"打瀬中学校","address":"千葉県千葉市美浜区打瀬3-12-1","postalCode":"261-0013","coordinate":{"latitude":35.6366406,"longitude":140.0431528}},{"type":0,"name":"海浜打瀬小学校","address":"千葉県千葉市美浜区打瀬3-3-1","postalCode":"261-0013","coordinate":{"latitude":35.640504,"longitude":140.041622}},{"type":0,"name":"浜田公園","address":"千葉県千葉市美浜区浜田2-126","postalCode":"261-0025","coordinate":{"latitude":35.657451,"longitude":140.031879}},{"type":0,"name":"幕張西公民館","address":"千葉県千葉市美浜区幕張西2-6-2","postalCode":"261-0026","coordinate":{"latitude":35.665574,"longitude":140.036361}},{"type":0,"name":"幕張西小学校","address":"千葉県千葉市美浜区幕張西2-8-1","postalCode":"261-0026","coordinate":{"latitude":35.664865,"longitude":140.038036}},{"type":0,"name":"幕張西中学校","address":"千葉県千葉市美浜区幕張西2-9-1","postalCode":"261-0026","coordinate":{"latitude":35.663569,"longitude":140.037348}},{"type":0,"name":"幕張西第2公園","address":"千葉県千葉市美浜区幕張西3-4","postalCode":"261-0026","coordinate":{"latitude":35.662924,"longitude":140.040114}},{"type":0,"name":"幕張西第3公園","address":"千葉県千葉市美浜区幕張西6-2-1","postalCode":"261-0026","coordinate":{"latitude":35.662899,"longitude":140.032026}},{"type":0,"name":"県立土気高等学校","address":"千葉県千葉市緑区あすみが丘東2-24-1","postalCode":"267-0061","coordinate":{"latitude":35.523568,"longitude":140.274237}},{"type":0,"name":"土気南小学校","address":"千葉県千葉市緑区あすみが丘4-16","postalCode":"267-0066","coordinate":{"latitude":35.523073,"longitude":140.265018}},{"type":0,"name":"土気南中学校","address":"千葉県千葉市緑区あすみが丘4-38","postalCode":"267-0066","coordinate":{"latitude":35.524839,"longitude":140.261005}},{"type":0,"name":"あすみが丘ふれあいの広場公園","address":"千葉県千葉市緑区あすみが丘6-1","postalCode":"267-0066","coordinate":{"latitude":35.521193,"longitude":140.263592}},{"type":0,"name":"あすみが丘小学校","address":"千葉県千葉市緑区あすみが丘6-2","postalCode":"267-0066","coordinate":{"latitude":35.519679,"longitude":140.263327}},{"type":0,"name":"大椎小学校","address":"千葉県千葉市緑区あすみが丘6-38","postalCode":"267-0066","coordinate":{"latitude":35.514374,"longitude":140.26234}},{"type":0,"name":"土気あすみが丘プラザ","address":"千葉県千葉市緑区あすみが丘7-2-4","postalCode":"267-0066","coordinate":{"latitude":35.521279,"longitude":140.265204}},{"type":0,"name":"大椎中学校","address":"千葉県千葉市緑区あすみが丘8-26","postalCode":"267-0066","coordinate":{"latitude":35.517118,"longitude":140.270416}},{"type":0,"name":"あすみが丘やすらぎの広場公園","address":"千葉県千葉市緑区あすみが丘9-13","postalCode":"267-0066","coordinate":{"latitude":35.511896,"longitude":140.264293}},{"type":0,"name":"有吉小学校","address":"千葉県千葉市緑区おゆみ野1-53","postalCode":"266-0031","coordinate":{"latitude":35.56129,"longitude":140.166093}},{"type":0,"name":"有吉中学校","address":"千葉県千葉市緑区おゆみ野2-41","postalCode":"266-0031","coordinate":{"latitude":35.560555,"longitude":140.170486}},{"type":0,"name":"おゆみ野さくら公園","address":"千葉県千葉市緑区おゆみ野2-42","postalCode":"266-0031","coordinate":{"latitude":35.560357,"longitude":140.172561}},{"type":0,"name":"鎌取コミュニティセンター","address":"千葉県千葉市緑区おゆみ野3-15-2","postalCode":"266-0031","coordinate":{"latitude":35.559952,"longitude":140.175703}},{"type":0,"name":"小谷小学校","address":"千葉県千葉市緑区おゆみ野4-45","postalCode":"266-0031","coordinate":{"latitude":35.555342,"longitude":140.181398}},{"type":0,"name":"扇田小学校","address":"千葉県千葉市緑区おゆみ野中央1-26","postalCode":"266-0032","coordinate":{"latitude":35.556929,"longitude":140.163464}},{"type":0,"name":"おゆみ野公民館","address":"千葉県千葉市緑区おゆみ野中央2-7-6","postalCode":"266-0032","coordinate":{"latitude":35.556087,"longitude":140.164181}},{"type":0,"name":"泉谷中学校","address":"千葉県千葉市緑区おゆみ野中央4-2","postalCode":"266-0016","coordinate":{"latitude":35.554916,"longitude":140.172145}},{"type":0,"name":"泉谷小学校","address":"千葉県千葉市緑区おゆみ野中央4-3","postalCode":"266-0016","coordinate":{"latitude":35.554272,"longitude":140.17359}},{"type":0,"name":"おゆみ野南小学校","address":"千葉県千葉市緑区おゆみ野南4-26","postalCode":"266-0033","coordinate":{"latitude":35.545057,"longitude":140.168743}},{"type":0,"name":"おゆみ野南中学校","address":"千葉県千葉市緑区おゆみ野南5-25","postalCode":"266-0033","coordinate":{"latitude":35.545119,"longitude":140.17698}},{"type":0,"name":"金沢小学校","address":"千葉県千葉市緑区おゆみ野南5-31","postalCode":"266-0015","coordinate":{"latitude":35.547626,"longitude":140.172434}},{"type":0,"name":"越智中学校","address":"千葉県千葉市緑区越智町651","postalCode":"267-0055","coordinate":{"latitude":35.533554,"longitude":140.241287}},{"type":0,"name":"越智小学校","address":"千葉県千葉市緑区越智町705-359","postalCode":"267-0055","coordinate":{"latitude":35.532181,"longitude":140.237031}},{"type":0,"name":"越智中央公園","address":"千葉県千葉市緑区越智町810-7","postalCode":"267-0055","coordinate":{"latitude":35.534583,"longitude":140.23731}},{"type":0,"name":"越智公民館","address":"千葉県千葉市緑区越智町822-7","postalCode":"267-0055","coordinate":{"latitude":35.534883,"longitude":140.236383}},{"type":0,"name":"古市場公園体育館・野球場","address":"千葉県千葉市緑区古市場町474-277","postalCode":"266-0026","coordinate":{"latitude":35.549187,"longitude":140.146295}},{"type":0,"name":"大木戸小学校","address":"千葉県千葉市緑区大木戸町317","postalCode":"267-0057","coordinate":{"latitude":35.531038,"longitude":140.250358}},{"type":0,"name":"大野台中央公園","address":"千葉県千葉市緑区大野台1-6-2","postalCode":"267-0056","coordinate":{"latitude":35.512455,"longitude":140.231846}},{"type":0,"name":"土気中学校","address":"千葉県千葉市緑区土気町1400","postalCode":"267-0061","coordinate":{"latitude":35.54135,"longitude":140.272533}},{"type":0,"name":"土気公民館","address":"千葉県千葉市緑区土気町1631-7","postalCode":"267-0061","coordinate":{"latitude":35.530729,"longitude":140.273647}},{"type":0,"name":"土気市民センター","address":"千葉県千葉市緑区土気町1634","postalCode":"267-0061","coordinate":{"latitude":35.530758,"longitude":140.27324}},{"type":0,"name":"土気小学校","address":"千葉県千葉市緑区土気町1634-2","postalCode":"267-0061","coordinate":{"latitude":35.531626,"longitude":140.273411}},{"type":0,"name":"椎名公民館","address":"千葉県千葉市緑区富岡町290-1","postalCode":"266-0022","coordinate":{"latitude":35.543663,"longitude":140.163851}},{"type":0,"name":"平山小学校","address":"千葉県千葉市緑区辺田町141","postalCode":"266-0007","coordinate":{"latitude":35.568846,"longitude":140.180059}},{"type":0,"name":"椎名小学校","address":"千葉県千葉市緑区茂呂町582","postalCode":"266-0023","coordinate":{"latitude":35.541806,"longitude":140.163408}},{"type":0,"name":"誉田南公園","address":"千葉県千葉市緑区誉田町1-780","postalCode":"266-0005","coordinate":{"latitude":35.548509,"longitude":140.19953}},{"type":0,"name":"誉田公民館","address":"千葉県千葉市緑区誉田町1-789-49","postalCode":"266-0005","coordinate":{"latitude":35.549869,"longitude":140.203233}},{"type":0,"name":"誉田中学校","address":"千葉県千葉市緑区誉田町1-138","postalCode":"266-0005","coordinate":{"latitude":35.552381,"longitude":140.202982}},{"type":0,"name":"誉田小学校","address":"千葉県千葉市緑区誉田町1-27","postalCode":"266-0005","coordinate":{"latitude":35.549554,"longitude":140.204475}},{"type":0,"name":"誉田東小学校","address":"千葉県千葉市緑区誉田町2-21-84","postalCode":"266-0005","coordinate":{"latitude":35.549533,"longitude":140.218211}},{"type":0,"name":"青葉の森公園芸術文化ホール","address":"千葉県千葉市中央区青葉町９７７－１","postalCode":"260-0852","coordinate":{"latitude":35.597896,"longitude":140.138826}},{"type":1,"name":"稲丘小学校","address":"千葉県千葉市稲毛区稲丘町19-30","postalCode":"263-0033","coordinate":{"latitude":35.632606,"longitude":140.088013}},{"type":1,"name":"稲毛公民館","address":"千葉県千葉市稲毛区稲毛1-10-17","postalCode":"263-0034","coordinate":{"latitude":35.636562,"longitude":140.08339}},{"type":1,"name":"稲毛中学校","address":"千葉県千葉市稲毛区稲毛町5-120","postalCode":"263-0035","coordinate":{"latitude":35.643927,"longitude":140.0821}},{"type":1,"name":"稲毛小学校","address":"千葉県千葉市稲毛区稲毛町5-535","postalCode":"263-0035","coordinate":{"latitude":35.64062,"longitude":140.08292}},{"type":1,"name":"草野小学校","address":"千葉県千葉市稲毛区園生町1385","postalCode":"263-0051","coordinate":{"latitude":35.65317,"longitude":140.125533}},{"type":1,"name":"草野中学校","address":"千葉県千葉市稲毛区園生町1397","postalCode":"263-0051","coordinate":{"latitude":35.652474,"longitude":140.127453}},{"type":1,"name":"草野公民館","address":"千葉県千葉市稲毛区園生町384-93","postalCode":"263-0051","coordinate":{"latitude":35.654072,"longitude":140.119792}},{"type":1,"name":"あやめ台小学校","address":"千葉県千葉市稲毛区園生町446-1","postalCode":"263-0051","coordinate":{"latitude":35.646871,"longitude":140.115721}},{"type":1,"name":"柏台小学校","address":"千葉県千葉市稲毛区園生町588","postalCode":"263-0051","coordinate":{"latitude":35.648613,"longitude":140.10734}},{"type":1,"name":"緑が丘公民館","address":"千葉県千葉市稲毛区宮野木町1807-3","postalCode":"263-0054","coordinate":{"latitude":35.657817,"longitude":140.107228}},{"type":1,"name":"宮野木小学校","address":"千葉県千葉市稲毛区宮野木町2100","postalCode":"263-0054","coordinate":{"latitude":35.658964,"longitude":140.109734}},{"type":1,"name":"宮野木スポーツセンター","address":"千葉県千葉市稲毛区宮野木町2150-4","postalCode":"263-0054","coordinate":{"latitude":35.66299,"longitude":140.105819}},{"type":1,"name":"県立京葉工業高等学校","address":"千葉県千葉市稲毛区穴川4-11-32","postalCode":"263-0024","coordinate":{"latitude":35.638143,"longitude":140.105287}},{"type":1,"name":"穴川コミュニティセンター","address":"千葉県千葉市稲毛区穴川4-12-3","postalCode":"263-0024","coordinate":{"latitude":35.63627,"longitude":140.106468}},{"type":1,"name":"轟公民館","address":"千葉県千葉市稲毛区轟町1-12-3","postalCode":"263-0021","coordinate":{"latitude":35.624684,"longitude":140.109721}},{"type":1,"name":"県立千葉東高等学校","address":"千葉県千葉市稲毛区轟町1-18-52","postalCode":"263-0021","coordinate":{"latitude":35.625768,"longitude":140.111161}},{"type":1,"name":"轟町小学校","address":"千葉県千葉市稲毛区轟町3-4-30","postalCode":"263-0021","coordinate":{"latitude":35.630306,"longitude":140.108309}},{"type":1,"name":"轟町中学校","address":"千葉県千葉市稲毛区轟町3-5-14","postalCode":"263-0021","coordinate":{"latitude":35.631176,"longitude":140.108064}},{"type":1,"name":"市立第二養護学校","address":"千葉県千葉市稲毛区轟町3-6-25","postalCode":"263-0021","coordinate":{"latitude":35.631506,"longitude":140.109383}},{"type":1,"name":"黒砂公民館","address":"千葉県千葉市稲毛区黒砂2-4-18","postalCode":"263-0042","coordinate":{"latitude":35.626439,"longitude":140.093987}},{"type":1,"name":"都賀公民館","address":"千葉県千葉市稲毛区作草部2-8-53","postalCode":"263-0015","coordinate":{"latitude":35.625484,"longitude":140.117697}},{"type":1,"name":"千草台東小学校","address":"千葉県千葉市稲毛区作草部町1298-1","postalCode":"263-0014","coordinate":{"latitude":35.631669,"longitude":140.122988}},{"type":1,"name":"都賀中学校","address":"千葉県千葉市稲毛区作草部町1306-1","postalCode":"263-0014","coordinate":{"latitude":35.631022,"longitude":140.123101}},{"type":1,"name":"都賀小学校","address":"千葉県千葉市稲毛区作草部町938","postalCode":"263-0014","coordinate":{"latitude":35.629152,"longitude":140.120068}},{"type":1,"name":"山王小学校","address":"千葉県千葉市稲毛区山王町121","postalCode":"263-0002","coordinate":{"latitude":35.665341,"longitude":140.142685}},{"type":1,"name":"県立千葉女子高等学校","address":"千葉県千葉市稲毛区小仲台5-10-1","postalCode":"263-0043","coordinate":{"latitude":35.641513,"longitude":140.100074}},{"type":1,"name":"小中台公民館","address":"千葉県千葉市稲毛区小仲台5-7-1","postalCode":"263-0043","coordinate":{"latitude":35.639361,"longitude":140.099082}},{"type":1,"name":"小中台小学校","address":"千葉県千葉市稲毛区小仲台6-34-1","postalCode":"263-0043","coordinate":{"latitude":35.639676,"longitude":140.095854}},{"type":1,"name":"小中台南小学校","address":"千葉県千葉市稲毛区小仲台8-15-1","postalCode":"263-0043","coordinate":{"latitude":35.646589,"longitude":140.089395}},{"type":1,"name":"園生小学校","address":"千葉県千葉市稲毛区小仲台9-30-1","postalCode":"263-0043","coordinate":{"latitude":35.647279,"longitude":140.097899}},{"type":1,"name":"市立千葉高等学校","address":"千葉県千葉市稲毛区小仲台9-46-1","postalCode":"263-0043","coordinate":{"latitude":35.644048,"longitude":140.099461}},{"type":1,"name":"小中台中学校","address":"千葉県千葉市稲毛区小仲台9-46-2","postalCode":"263-0043","coordinate":{"latitude":35.645896,"longitude":140.099422}},{"type":1,"name":"千草台中学校","address":"千葉県千葉市稲毛区千草台2-3-1","postalCode":"263-0013","coordinate":{"latitude":35.636797,"longitude":140.117923}},{"type":1,"name":"長沼原勤労市民プラザ","address":"千葉県千葉市稲毛区長沼原町304-1","postalCode":"263-0001","coordinate":{"latitude":35.668396,"longitude":140.129942}},{"type":1,"name":"県立千葉北高等学校","address":"千葉県千葉市稲毛区長沼町153","postalCode":"263-0005","coordinate":{"latitude":35.662191,"longitude":140.113685}},{"type":1,"name":"長沼コミュニティセンター","address":"千葉県千葉市稲毛区長沼町461-8","postalCode":"263-0005","coordinate":{"latitude":35.663381,"longitude":140.126171}},{"type":1,"name":"千草台公民館","address":"千葉県千葉市稲毛区天台3-16-5","postalCode":"263-0016","coordinate":{"latitude":35.633774,"longitude":140.1168}},{"type":1,"name":"千草台小学校","address":"千葉県千葉市稲毛区天台5-11-1","postalCode":"263-0016","coordinate":{"latitude":35.638225,"longitude":140.116007}},{"type":1,"name":"弥生小学校","address":"千葉県千葉市稲毛区弥生町3-18","postalCode":"263-0022","coordinate":{"latitude":35.625803,"longitude":140.101136}},{"type":1,"name":"緑町小学校","address":"千葉県千葉市稲毛区緑町2-13-1","postalCode":"263-0023","coordinate":{"latitude":35.623442,"longitude":140.097753}},{"type":1,"name":"緑町中学校","address":"千葉県千葉市稲毛区緑町2-3-1","postalCode":"263-0023","coordinate":{"latitude":35.622432,"longitude":140.09687}},{"type":1,"name":"山王公民館","address":"千葉県千葉市稲毛区六方町55-29","postalCode":"263-0004","coordinate":{"latitude":35.657531,"longitude":140.145563}},{"type":1,"name":"こてはし台小学校","address":"千葉県千葉市花見川区こてはし台2-28-1","postalCode":"262-0005","coordinate":{"latitude":35.687879,"longitude":140.122574}},{"type":1,"name":"こてはし台中学校","address":"千葉県千葉市花見川区こてはし台5-15-1","postalCode":"262-0005","coordinate":{"latitude":35.691687,"longitude":140.11922}},{"type":1,"name":"さつきが丘公民館","address":"千葉県千葉市花見川区さつきが丘1-32-4","postalCode":"262-0014","coordinate":{"latitude":35.665081,"longitude":140.096923}},{"type":1,"name":"さつきが丘東小学校","address":"千葉県千葉市花見川区さつきが丘1-7","postalCode":"262-0014","coordinate":{"latitude":35.663923,"longitude":140.099185}},{"type":1,"name":"さつきが丘西小学校","address":"千葉県千葉市花見川区さつきが丘2-14","postalCode":"262-0014","coordinate":{"latitude":35.667513,"longitude":140.091189}},{"type":1,"name":"さつきが丘中学校","address":"千葉県千葉市花見川区さつきが丘2-15","postalCode":"262-0014","coordinate":{"latitude":35.668038,"longitude":140.091346}},{"type":1,"name":"幕張東小学校","address":"千葉県千葉市花見川区幕張町4-681","postalCode":"262-0046","coordinate":{"latitude":35.665366,"longitude":140.058071}},{"type":1,"name":"横戸小学校","address":"千葉県千葉市花見川区横戸町1005","postalCode":"262-0001","coordinate":{"latitude":35.696165,"longitude":140.120359}},{"type":1,"name":"こてはし台公民館","address":"千葉県千葉市花見川区横戸町861-4","postalCode":"262-0001","coordinate":{"latitude":35.692935,"longitude":140.121033}},{"type":1,"name":"花園公民館","address":"千葉県千葉市花見川区花園3-12-8","postalCode":"262-0025","coordinate":{"latitude":35.657782,"longitude":140.069651}},{"type":1,"name":"花園中学校","address":"千葉県千葉市花見川区花園4-1-1","postalCode":"262-0025","coordinate":{"latitude":35.655299,"longitude":140.074047}},{"type":1,"name":"花園小学校","address":"千葉県千葉市花見川区花園4-1-2","postalCode":"262-0025","coordinate":{"latitude":35.656337,"longitude":140.073887}},{"type":1,"name":"花見川第三小学校","address":"千葉県千葉市花見川区花見川1-1","postalCode":"262-0046","coordinate":{"latitude":35.685277,"longitude":140.088844}},{"type":1,"name":"花見川小学校","address":"千葉県千葉市花見川区花見川4-1","postalCode":"262-0046","coordinate":{"latitude":35.694152,"longitude":140.097846}},{"type":1,"name":"旧花見川第二小学校（跡施設）","address":"千葉県千葉市花見川区花見川6-1","postalCode":"262-0043","coordinate":{"latitude":35.688791,"longitude":140.101329}},{"type":1,"name":"花見川中学校","address":"千葉県千葉市花見川区花見川6-2","postalCode":"262-0046","coordinate":{"latitude":35.689048,"longitude":140.102719}},{"type":1,"name":"花島小学校","address":"千葉県千葉市花見川区花見川8-1","postalCode":"262-0046","coordinate":{"latitude":35.684275,"longitude":140.096313}},{"type":1,"name":"花島コミュニティセンター","address":"千葉県千葉市花見川区花島町308","postalCode":"262-0042","coordinate":{"latitude":35.681497,"longitude":140.096891}},{"type":1,"name":"検見川小学校","address":"千葉県千葉市花見川区検見川町3-322-23","postalCode":"262-0023","coordinate":{"latitude":35.648881,"longitude":140.068613}},{"type":1,"name":"検見川公民館","address":"千葉県千葉市花見川区検見川町3-322-25","postalCode":"262-0023","coordinate":{"latitude":35.649268,"longitude":140.067343}},{"type":1,"name":"作新小学校","address":"千葉県千葉市花見川区作新台7-2-1","postalCode":"262-0045","coordinate":{"latitude":35.687734,"longitude":140.084471}},{"type":1,"name":"犢橋中学校","address":"千葉県千葉市花見川区三角町656-2","postalCode":"262-0011","coordinate":{"latitude":35.677681,"longitude":140.116991}},{"type":1,"name":"瑞穂小学校","address":"千葉県千葉市花見川区瑞穂1-2","postalCode":"262-0026","coordinate":{"latitude":35.664124,"longitude":140.069014}},{"type":1,"name":"西小中台小学校","address":"千葉県千葉市花見川区西小中台3-1","postalCode":"262-0016","coordinate":{"latitude":35.650972,"longitude":140.086281}},{"type":1,"name":"県立犢橋高等学校","address":"千葉県千葉市花見川区千種町381-1","postalCode":"262-0012","coordinate":{"latitude":35.678105,"longitude":140.120609}},{"type":1,"name":"朝日ヶ丘公民館","address":"千葉県千葉市花見川区朝日ヶ丘1-1-30","postalCode":"262-0017","coordinate":{"latitude":35.655571,"longitude":140.08917}},{"type":1,"name":"朝日ヶ丘中学校","address":"千葉県千葉市花見川区朝日ヶ丘2-4-1","postalCode":"262-0017","coordinate":{"latitude":35.656489,"longitude":140.087576}},{"type":1,"name":"朝日ヶ丘小学校","address":"千葉県千葉市花見川区朝日ヶ丘2-6-1","postalCode":"262-0017","coordinate":{"latitude":35.659229,"longitude":140.085505}},{"type":1,"name":"長作小学校","address":"千葉県千葉市花見川区長作町1273","postalCode":"262-0044","coordinate":{"latitude":35.684214,"longitude":140.073743}},{"type":1,"name":"長作公民館","address":"千葉県千葉市花見川区長作町1722-1","postalCode":"262-0044","coordinate":{"latitude":35.680342,"longitude":140.079025}},{"type":1,"name":"旧花見川第二中学校（跡施設）","address":"千葉県千葉市花見川区天戸町1428-1","postalCode":"262-0043","coordinate":{"latitude":35.682765,"longitude":140.087811}},{"type":1,"name":"天戸中学校","address":"千葉県千葉市花見川区天戸町1429","postalCode":"262-0043","coordinate":{"latitude":35.681448,"longitude":140.087113}},{"type":1,"name":"柏井小学校","address":"千葉県千葉市花見川区柏井4-48-1","postalCode":"262-0041","coordinate":{"latitude":35.708785,"longitude":140.106365}},{"type":1,"name":"県立柏井高等学校","address":"千葉県千葉市花見川区柏井町1452","postalCode":"262-0041","coordinate":{"latitude":35.698184,"longitude":140.107442}},{"type":1,"name":"花見川公民館","address":"千葉県千葉市花見川区柏井町1590-8","postalCode":"262-0041","coordinate":{"latitude":35.695591,"longitude":140.099679}},{"type":1,"name":"畑コミュニティセンター","address":"千葉県千葉市花見川区畑町1336-2","postalCode":"262-0018","coordinate":{"latitude":35.666976,"longitude":140.079314}},{"type":1,"name":"畑小学校","address":"千葉県千葉市花見川区畑町1385-1","postalCode":"262-0018","coordinate":{"latitude":35.665423,"longitude":140.078677}},{"type":1,"name":"幕張南小学校","address":"千葉県千葉市花見川区幕張町3-7718","postalCode":"262-0032","coordinate":{"latitude":35.657064,"longitude":140.047183}},{"type":1,"name":"幕張コミュニティセンター","address":"千葉県千葉市花見川区幕張町3-7730-4","postalCode":"262-0032","coordinate":{"latitude":35.656515,"longitude":140.047597}},{"type":1,"name":"幕張中学校","address":"千葉県千葉市花見川区幕張町4-45","postalCode":"262-0032","coordinate":{"latitude":35.662916,"longitude":140.059058}},{"type":1,"name":"幕張公民館","address":"千葉県千葉市花見川区幕張町4-602","postalCode":"262-0032","coordinate":{"latitude":35.660265,"longitude":140.055428}},{"type":1,"name":"幕張小学校","address":"千葉県千葉市花見川区幕張町4-781","postalCode":"262-0032","coordinate":{"latitude":35.661884,"longitude":140.053739}},{"type":1,"name":"幕張本郷公民館","address":"千葉県千葉市花見川区幕張本郷2-19-33","postalCode":"262-0033","coordinate":{"latitude":35.66819,"longitude":140.03917}},{"type":1,"name":"西の谷小学校","address":"千葉県千葉市花見川区幕張本郷3-22-6","postalCode":"262-0033","coordinate":{"latitude":35.666154,"longitude":140.04597}},{"type":1,"name":"上の台小学校","address":"千葉県千葉市花見川区幕張本郷4-8-1","postalCode":"262-0033","coordinate":{"latitude":35.668121,"longitude":140.050455}},{"type":1,"name":"幕張本郷中学校","address":"千葉県千葉市花見川区幕張本郷5-18-1","postalCode":"262-0033","coordinate":{"latitude":35.671886,"longitude":140.04763}},{"type":1,"name":"犢橋公民館","address":"千葉県千葉市花見川区犢橋町162-1","postalCode":"262-0013","coordinate":{"latitude":35.66681,"longitude":140.1136}},{"type":1,"name":"緑が丘中学校","address":"千葉県千葉市花見川区犢橋町213-4","postalCode":"262-0013","coordinate":{"latitude":35.664324,"longitude":140.111212}},{"type":1,"name":"犢橋小学校","address":"千葉県千葉市花見川区犢橋町774","postalCode":"262-0013","coordinate":{"latitude":35.67297,"longitude":140.108168}},{"type":1,"name":"更科小学校","address":"千葉県千葉市若葉区更科町2073","postalCode":"265-0041","coordinate":{"latitude":35.619293,"longitude":140.228021}},{"type":1,"name":"都賀コミュニティセンター","address":"千葉県千葉市若葉区都賀4-20-1","postalCode":"264-0023","coordinate":{"latitude":35.634316,"longitude":140.154666}},{"type":1,"name":"みつわ台南小学校","address":"千葉県千葉市若葉区みつわ台1-17-1","postalCode":"264-0032","coordinate":{"latitude":35.634603,"longitude":140.130816}},{"type":1,"name":"みつわ台中学校","address":"千葉県千葉市若葉区みつわ台2-41-1","postalCode":"264-0032","coordinate":{"latitude":35.635307,"longitude":140.13119}},{"type":1,"name":"みつわ台公民館","address":"千葉県千葉市若葉区みつわ台3-12-17","postalCode":"264-0032","coordinate":{"latitude":35.639241,"longitude":140.135506}},{"type":1,"name":"みつわ台体育館","address":"千葉県千葉市若葉区みつわ台3-3-1","postalCode":"264-0032","coordinate":{"latitude":35.640936,"longitude":140.13626}},{"type":1,"name":"みつわ台北小学校","address":"千葉県千葉市若葉区みつわ台3-5-1","postalCode":"264-0032","coordinate":{"latitude":35.642034,"longitude":140.137846}},{"type":1,"name":"県立桜が丘特別支援学校","address":"千葉県千葉市若葉区加曽利町1538","postalCode":"264-0017","coordinate":{"latitude":35.614322,"longitude":140.1689}},{"type":1,"name":"加曽利公民館","address":"千葉県千葉市若葉区加曽利町892-6","postalCode":"264-0017","coordinate":{"latitude":35.612151,"longitude":140.152058}},{"type":1,"name":"加曽利中学校","address":"千葉県千葉市若葉区加曽利町961-5","postalCode":"264-0017","coordinate":{"latitude":35.613952,"longitude":140.157619}},{"type":1,"name":"貝塚中学校","address":"千葉県千葉市若葉区貝塚1-7-1","postalCode":"264-0023","coordinate":{"latitude":35.624021,"longitude":140.15347}},{"type":1,"name":"北貝塚小学校","address":"千葉県千葉市若葉区貝塚町1093","postalCode":"264-0023","coordinate":{"latitude":35.628665,"longitude":140.145034}},{"type":1,"name":"源小学校","address":"千葉県千葉市若葉区源町541-6","postalCode":"264-0037","coordinate":{"latitude":35.648724,"longitude":140.131757}},{"type":1,"name":"更科中学校","address":"千葉県千葉市若葉区更科町2112","postalCode":"265-0073","coordinate":{"latitude":35.617657,"longitude":140.226416}},{"type":1,"name":"更科公民館","address":"千葉県千葉市若葉区更科町2254-1","postalCode":"265-0073","coordinate":{"latitude":35.6178,"longitude":140.227794}},{"type":1,"name":"県立泉高等学校","address":"千葉県千葉市若葉区高根町875-1","postalCode":"265-0061","coordinate":{"latitude":35.602155,"longitude":140.210218}},{"type":1,"name":"坂月小学校","address":"千葉県千葉市若葉区坂月町298","postalCode":"264-0012","coordinate":{"latitude":35.612023,"longitude":140.18158}},{"type":1,"name":"桜木公民館","address":"千葉県千葉市若葉区桜木3-17-29","postalCode":"264-0022","coordinate":{"latitude":35.622766,"longitude":140.160381}},{"type":1,"name":"桜木小学校","address":"千葉県千葉市若葉区桜木3-26-1","postalCode":"264-0022","coordinate":{"latitude":35.621105,"longitude":140.159517}},{"type":1,"name":"若松台小学校","address":"千葉県千葉市若葉区若松台2-25-1","postalCode":"264-0021","coordinate":{"latitude":35.649861,"longitude":140.171906}},{"type":1,"name":"若松中学校","address":"千葉県千葉市若葉区若松町2106-2","postalCode":"264-0021","coordinate":{"latitude":35.635795,"longitude":140.169846}},{"type":1,"name":"若松公民館","address":"千葉県千葉市若葉区若松町2117-2","postalCode":"264-0021","coordinate":{"latitude":35.635095,"longitude":140.167547}},{"type":1,"name":"若松小学校","address":"千葉県千葉市若葉区若松町360-1","postalCode":"264-0021","coordinate":{"latitude":35.640785,"longitude":140.16792}},{"type":1,"name":"県立若松高等学校","address":"千葉県千葉市若葉区若松町429","postalCode":"264-0021","coordinate":{"latitude":35.644031,"longitude":140.159173}},{"type":1,"name":"山王中学校","address":"千葉県千葉市若葉区若松町774","postalCode":"264-0021","coordinate":{"latitude":35.653051,"longitude":140.142673}},{"type":1,"name":"小倉小学校","address":"千葉県千葉市若葉区小倉台5-1-1","postalCode":"264-0006","coordinate":{"latitude":35.631903,"longitude":140.173037}},{"type":1,"name":"県立千城台高等学校","address":"千葉県千葉市若葉区千城台西2-1-1","postalCode":"264-0004","coordinate":{"latitude":35.62161,"longitude":140.188093}},{"type":1,"name":"千城台公民館","address":"千葉県千葉市若葉区千城台西2-1-1","postalCode":"264-0004","coordinate":{"latitude":35.622318,"longitude":140.187309}},{"type":1,"name":"千城台コミュニティセンター","address":"千葉県千葉市若葉区千城台西2-1-1","postalCode":"264-0004","coordinate":{"latitude":35.621971,"longitude":140.186443}},{"type":1,"name":"千城台西中学校","address":"千葉県千葉市若葉区千城台西2-20-1","postalCode":"264-0004","coordinate":{"latitude":35.621598,"longitude":140.18464}},{"type":1,"name":"千城台西小学校","address":"千葉県千葉市若葉区千城台西2-21-1","postalCode":"264-0004","coordinate":{"latitude":35.622764,"longitude":140.182551}},{"type":1,"name":"千城台東小学校","address":"千葉県千葉市若葉区千城台東1-15-1","postalCode":"264-0002","coordinate":{"latitude":35.62234,"longitude":140.191512}},{"type":1,"name":"千城台旭小学校","address":"千葉県千葉市若葉区千城台東3-18-1","postalCode":"264-0002","coordinate":{"latitude":35.61735,"longitude":140.195927}},{"type":1,"name":"千城台南小学校","address":"千葉県千葉市若葉区千城台南1-19-1","postalCode":"264-0003","coordinate":{"latitude":35.618273,"longitude":140.189326}},{"type":1,"name":"千城台南中学校","address":"千葉県千葉市若葉区千城台南1-20-1","postalCode":"264-0003","coordinate":{"latitude":35.618688,"longitude":140.190774}},{"type":1,"name":"千城台北小学校","address":"千葉県千葉市若葉区千城台北1-4-1","postalCode":"264-0005","coordinate":{"latitude":35.628698,"longitude":140.18372}},{"type":1,"name":"大宮小学校","address":"千葉県千葉市若葉区大宮台7-8-1","postalCode":"264-0015","coordinate":{"latitude":35.596181,"longitude":140.182235}},{"type":1,"name":"市立養護学校","address":"千葉県千葉市若葉区大宮町1066-1","postalCode":"264-0016","coordinate":{"latitude":35.59769,"longitude":140.166978}},{"type":1,"name":"大宮中学校","address":"千葉県千葉市若葉区大宮町2077","postalCode":"264-0016","coordinate":{"latitude":35.586326,"longitude":140.186714}},{"type":1,"name":"大宮台小学校","address":"千葉県千葉市若葉区大宮町2082","postalCode":"264-0016","coordinate":{"latitude":35.585079,"longitude":140.186184}},{"type":1,"name":"千城小学校","address":"千葉県千葉市若葉区大宮町2655","postalCode":"264-0016","coordinate":{"latitude":35.600051,"longitude":140.168745}},{"type":1,"name":"県立千葉大宮高等学校","address":"千葉県千葉市若葉区大宮町2699-1","postalCode":"264-0016","coordinate":{"latitude":35.602702,"longitude":140.169997}},{"type":1,"name":"大宮公民館","address":"千葉県千葉市若葉区大宮町3221-2","postalCode":"264-0016","coordinate":{"latitude":35.596559,"longitude":140.181029}},{"type":1,"name":"千葉刑務所","address":"千葉県千葉市若葉区貝塚町192","postalCode":"231-1191","coordinate":{"latitude":35.615433,"longitude":140.13377}},{"type":1,"name":"都賀の台小学校","address":"千葉県千葉市若葉区都賀の台2-13-1","postalCode":"264-0033","coordinate":{"latitude":35.643833,"longitude":140.141663}},{"type":1,"name":"白井小学校","address":"千葉県千葉市若葉区野呂町215","postalCode":"265-0053","coordinate":{"latitude":35.580907,"longitude":140.230974}},{"type":1,"name":"白井公民館","address":"千葉県千葉市若葉区野呂町622-10","postalCode":"265-0053","coordinate":{"latitude":35.58389792,"longitude":140.2302786}},{"type":1,"name":"白井中学校","address":"千葉県千葉市若葉区野呂町623","postalCode":"265-0053","coordinate":{"latitude":35.587526,"longitude":140.225637}},{"type":1,"name":"生浜西小学校","address":"千葉県千葉市中央区塩田町316-1","postalCode":"260-0823","coordinate":{"latitude":35.558963,"longitude":140.131289}},{"type":1,"name":"県立生浜高等学校","address":"千葉県千葉市中央区塩田町372","postalCode":"260-0823","coordinate":{"latitude":35.560683,"longitude":140.129611}},{"type":1,"name":"県立千葉南高等学校","address":"千葉県千葉市中央区花輪町45-3","postalCode":"260-0803","coordinate":{"latitude":35.576886,"longitude":140.163589}},{"type":1,"name":"県立千葉高等学校","address":"千葉県千葉市中央区葛城1-5-2","postalCode":"260-0853","coordinate":{"latitude":35.599997,"longitude":140.128396}},{"type":1,"name":"葛城中学校","address":"千葉県千葉市中央区葛城2-9-1","postalCode":"260-0853","coordinate":{"latitude":35.600871,"longitude":140.131033}},{"type":1,"name":"葛城公民館","address":"千葉県千葉市中央区葛城2-9-2","postalCode":"260-0853","coordinate":{"latitude":35.59964,"longitude":140.130897}},{"type":1,"name":"寒川小学校","address":"千葉県千葉市中央区寒川町1-205","postalCode":"260-0832","coordinate":{"latitude":35.597317,"longitude":140.121804}},{"type":1,"name":"宮崎小学校","address":"千葉県千葉市中央区宮崎2-3-13","postalCode":"260-0806","coordinate":{"latitude":35.583663,"longitude":140.136586}},{"type":1,"name":"宮崎公民館","address":"千葉県千葉市中央区宮崎2-5-22","postalCode":"260-0806","coordinate":{"latitude":35.580616,"longitude":140.136829}},{"type":1,"name":"蘇我コミュニティセンター","address":"千葉県千葉市中央区今井1-14-43","postalCode":"260-0834","coordinate":{"latitude":35.583746,"longitude":140.12181}},{"type":1,"name":"蘇我小学校","address":"千葉県千葉市中央区今井3-15-32","postalCode":"260-0834","coordinate":{"latitude":35.578211,"longitude":140.131263}},{"type":1,"name":"県立千葉工業高等学校","address":"千葉県千葉市中央区今井町1478","postalCode":"260-0815","coordinate":{"latitude":35.57154,"longitude":140.141141}},{"type":1,"name":"松ヶ丘公民館","address":"千葉県千葉市中央区松ヶ丘町257-2","postalCode":"260-0807","coordinate":{"latitude":35.588168,"longitude":140.151861}},{"type":1,"name":"松ケ丘中学校","address":"千葉県千葉市中央区松ヶ丘町440","postalCode":"260-0807","coordinate":{"latitude":35.587721,"longitude":140.152469}},{"type":1,"name":"松ケ丘小学校","address":"千葉県千葉市中央区松ヶ丘町580","postalCode":"260-0807","coordinate":{"latitude":35.586438,"longitude":140.155405}},{"type":1,"name":"県立千葉商業高等学校","address":"千葉県千葉市中央区松波2-22-48","postalCode":"260-0044","coordinate":{"latitude":35.621103,"longitude":140.107925}},{"type":1,"name":"新宿小学校","address":"千葉県千葉市中央区新宿2-15-1","postalCode":"260-0021","coordinate":{"latitude":35.607909,"longitude":140.114303}},{"type":1,"name":"新宿公民館","address":"千葉県千葉市中央区新宿2-16-14","postalCode":"260-0021","coordinate":{"latitude":35.606858,"longitude":140.113776}},{"type":1,"name":"仁戸名小学校","address":"千葉県千葉市中央区仁戸名町380","postalCode":"260-0801","coordinate":{"latitude":35.59256,"longitude":140.158669}},{"type":1,"name":"星久喜小学校","address":"千葉県千葉市中央区星久喜町1060","postalCode":"260-0808","coordinate":{"latitude":35.596806,"longitude":140.146688}},{"type":1,"name":"都市緑化植物園","address":"千葉県千葉市中央区星久喜町278","postalCode":"260-0808","coordinate":{"latitude":35.601812,"longitude":140.151577}},{"type":1,"name":"星久喜公民館","address":"千葉県千葉市中央区星久喜町615-7","postalCode":"260-0808","coordinate":{"latitude":35.597701,"longitude":140.151177}},{"type":1,"name":"星久喜中学校     ","address":"千葉県千葉市中央区星久喜町823","postalCode":"260-0808","coordinate":{"latitude":35.600845,"longitude":140.152051}},{"type":1,"name":"生浜東小学校","address":"千葉県千葉市中央区生実町1928","postalCode":"260-0813","coordinate":{"latitude":35.559876,"longitude":140.147935}},{"type":1,"name":"生浜公民館","address":"千葉県千葉市中央区生実町67-1","postalCode":"260-0813","coordinate":{"latitude":35.559637,"longitude":140.14177}},{"type":1,"name":"千葉市ハーモニープラザ","address":"千葉県千葉市中央区千葉寺町1208-2","postalCode":"260-0844","coordinate":{"latitude":35.59465,"longitude":140.134677}},{"type":1,"name":"川戸公民館","address":"千葉県千葉市中央区川戸町403-1","postalCode":"260-0802","coordinate":{"latitude":35.581942,"longitude":140.166883}},{"type":1,"name":"川戸中学校","address":"千葉県千葉市中央区川戸町443","postalCode":"260-0802","coordinate":{"latitude":35.584003,"longitude":140.167873}},{"type":1,"name":"川戸小学校","address":"千葉県千葉市中央区川戸町450","postalCode":"260-0802","coordinate":{"latitude":35.584782,"longitude":140.167967}},{"type":1,"name":"大巌寺小学校","address":"千葉県千葉市中央区大巌寺町375","postalCode":"260-0812","coordinate":{"latitude":35.573157,"longitude":140.149072}},{"type":1,"name":"大森小学校","address":"千葉県千葉市中央区大森町268","postalCode":"260-0811","coordinate":{"latitude":35.580623,"longitude":140.144476}},{"type":1,"name":"子ども交流館","address":"千葉県千葉市中央区中央4-5-1","postalCode":"260-0013","coordinate":{"latitude":35.607396,"longitude":140.122887}},{"type":1,"name":"子育て支援館","address":"千葉県千葉市中央区中央4-5-1","postalCode":"260-0013","coordinate":{"latitude":35.607405,"longitude":140.122893}},{"type":1,"name":"千葉市科学館","address":"千葉県千葉市中央区中央4-5-1","postalCode":"260-0013","coordinate":{"latitude":35.607405,"longitude":140.122899}},{"type":1,"name":"椿森中学校","address":"千葉県千葉市中央区椿森4-1-1","postalCode":"260-0042","coordinate":{"latitude":35.622409,"longitude":140.120766}},{"type":1,"name":"椿森公民館","address":"千葉県千葉市中央区椿森6-1-11","postalCode":"260-0042","coordinate":{"latitude":35.620126,"longitude":140.123848}},{"type":1,"name":"鶴沢小学校","address":"千葉県千葉市中央区鶴沢町21-1","postalCode":"260-0003","coordinate":{"latitude":35.60987,"longitude":140.133712}},{"type":1,"name":"登戸小学校","address":"千葉県千葉市中央区登戸2-11-1","postalCode":"260-0032","coordinate":{"latitude":35.612438,"longitude":140.107616}},{"type":1,"name":"都小学校","address":"千葉県千葉市中央区都町1129","postalCode":"260-0001","coordinate":{"latitude":35.612507,"longitude":140.144835}},{"type":1,"name":"千葉明徳学園","address":"千葉県千葉市中央区南生実町1412","postalCode":"260-0814","coordinate":{"latitude":35.560637,"longitude":140.154581}},{"type":1,"name":"生浜中学校","address":"千葉県千葉市中央区南生実町258","postalCode":"260-0814","coordinate":{"latitude":35.557209,"longitude":140.144112}},{"type":1,"name":"南部青少年センタ－","address":"千葉県千葉市中央区白旗1-3-16","postalCode":"260-0841","coordinate":{"latitude":35.579056,"longitude":140.138547}},{"type":1,"name":"蘇我中学校","address":"千葉県千葉市中央区白旗1-5-3","postalCode":"260-0841","coordinate":{"latitude":35.577268,"longitude":140.138018}},{"type":1,"name":"生浜小学校","address":"千葉県千葉市中央区浜野町1335","postalCode":"260-0824","coordinate":{"latitude":35.559479,"longitude":140.140508}},{"type":1,"name":"弁天小学校","address":"千葉県千葉市中央区弁天1-21-2","postalCode":"260-0045","coordinate":{"latitude":35.616491,"longitude":140.112619}},{"type":1,"name":"本町小学校","address":"千葉県千葉市中央区本町2-6-23","postalCode":"260-0012","coordinate":{"latitude":35.60932,"longitude":140.128119}},{"type":1,"name":"末広中学校","address":"千葉県千葉市中央区末広2-10-1","postalCode":"260-0843","coordinate":{"latitude":35.596786,"longitude":140.126615}},{"type":1,"name":"末広公民館","address":"千葉県千葉市中央区末広3-2-2","postalCode":"260-0843","coordinate":{"latitude":35.593978,"longitude":140.125234}},{"type":1,"name":"千葉ポートアリーナ","address":"千葉県千葉市中央区問屋町1-20","postalCode":"260-0025","coordinate":{"latitude":35.602902,"longitude":140.111797}},{"type":1,"name":"新宿中学校","address":"千葉県千葉市中央区問屋町1-73","postalCode":"260-0025","coordinate":{"latitude":35.604404,"longitude":140.109207}},{"type":1,"name":"院内小学校","address":"千葉県千葉市中央区祐光1-25-3","postalCode":"260-0007","coordinate":{"latitude":35.615512,"longitude":140.125796}},{"type":1,"name":"市民会館","address":"千葉県千葉市中央区要町1-1","postalCode":"260-0017","coordinate":{"latitude":35.615425,"longitude":140.120277}},{"type":1,"name":"磯辺第三小学校","address":"千葉県千葉市美浜区磯辺1-25-1","postalCode":"261-0012","coordinate":{"latitude":35.630095,"longitude":140.064158}},{"type":1,"name":"磯辺公民館","address":"千葉県千葉市美浜区磯辺1-48-1","postalCode":"261-0012","coordinate":{"latitude":35.628198,"longitude":140.061779}},{"type":1,"name":"県立磯辺高等学校","address":"千葉県千葉市美浜区磯辺2-7-1","postalCode":"261-0012","coordinate":{"latitude":35.62603,"longitude":140.058344}},{"type":1,"name":"磯辺スポーツセンター","address":"千葉県千葉市美浜区磯辺1-50-1","postalCode":"261-0012","coordinate":{"latitude":35.627547,"longitude":140.062442}},{"type":1,"name":"県立千葉西高等学校","address":"千葉県千葉市美浜区磯辺3-30-3","postalCode":"261-0012","coordinate":{"latitude":35.627413,"longitude":140.053344}},{"type":1,"name":"磯辺小学校","address":"千葉県千葉市美浜区磯辺4-16-1","postalCode":"261-0012","coordinate":{"latitude":35.631764,"longitude":140.058101}},{"type":1,"name":"磯辺中学校","address":"千葉県千葉市美浜区磯辺7-1-1","postalCode":"261-0012","coordinate":{"latitude":35.632514,"longitude":140.053963}},{"type":1,"name":"稲浜小学校","address":"千葉県千葉市美浜区稲毛海岸2-3-2","postalCode":"261-0005","coordinate":{"latitude":35.629948,"longitude":140.084343}},{"type":1,"name":"稲浜中学校","address":"千葉県千葉市美浜区稲毛海岸2-3-3","postalCode":"261-0005","coordinate":{"latitude":35.632781,"longitude":140.081805}},{"type":1,"name":"稲浜公民館","address":"千葉県千葉市美浜区稲毛海岸3-4-1","postalCode":"261-0005","coordinate":{"latitude":35.631989,"longitude":140.079466}},{"type":1,"name":"稲毛第二小学校","address":"千葉県千葉市美浜区稲毛海岸5-7-1","postalCode":"261-0005","coordinate":{"latitude":35.636881,"longitude":140.075339}},{"type":1,"name":"幸町第三小学校","address":"千葉県千葉市美浜区幸町1-10-1","postalCode":"261-0001","coordinate":{"latitude":35.61127,"longitude":140.099009}},{"type":1,"name":"幸町第二中学校","address":"千葉県千葉市美浜区幸町1-10-2","postalCode":"261-0001","coordinate":{"latitude":35.612579,"longitude":140.098057}},{"type":1,"name":"幸町小学校","address":"千葉県千葉市美浜区幸町2-12-12","postalCode":"261-0001","coordinate":{"latitude":35.621654,"longitude":140.090536}},{"type":1,"name":"幸町公民館","address":"千葉県千葉市美浜区幸町2-12-14","postalCode":"261-0001","coordinate":{"latitude":35.620676,"longitude":140.092358}},{"type":1,"name":"幸町第一中学校","address":"千葉県千葉市美浜区幸町2-12-7","postalCode":"261-0001","coordinate":{"latitude":35.621181,"longitude":140.090026}},{"type":1,"name":"旧幸町第一小学校（跡施設）","address":"千葉県千葉市美浜区幸町2-17-4","postalCode":"261-0001","coordinate":{"latitude":35.624268,"longitude":140.088305}},{"type":1,"name":"旧幸町第二小学校（跡施設）","address":"千葉県千葉市美浜区幸町2-9-4","postalCode":"261-0001","coordinate":{"latitude":35.617929,"longitude":140.095016}},{"type":1,"name":"高洲第四小学校","address":"千葉県千葉市美浜区高洲1-15-1","postalCode":"261-0004","coordinate":{"latitude":35.630763,"longitude":140.077952}},{"type":1,"name":"高洲小学校","address":"千葉県千葉市美浜区高洲2-2-20","postalCode":"261-0004","coordinate":{"latitude":35.625053,"longitude":140.079808}},{"type":1,"name":"高洲第一中学校","address":"千葉県千葉市美浜区高洲2-3-18","postalCode":"261-0004","coordinate":{"latitude":35.623245,"longitude":140.077441}},{"type":1,"name":"高洲コミュニティセンター","address":"千葉県千葉市美浜区高洲3-12-1","postalCode":"261-0004","coordinate":{"latitude":35.626992,"longitude":140.071044}},{"type":1,"name":"高洲第三小学校","address":"千葉県千葉市美浜区高洲3-3-11","postalCode":"261-0004","coordinate":{"latitude":35.626726,"longitude":140.074168}},{"type":1,"name":"高洲スポーツセンター","address":"千葉県千葉市美浜区高洲4-2-2","postalCode":"261-0004","coordinate":{"latitude":35.633553,"longitude":140.075261}},{"type":1,"name":"高洲第二中学校","address":"千葉県千葉市美浜区高洲4-4-3","postalCode":"261-0004","coordinate":{"latitude":35.632562,"longitude":140.071747}},{"type":1,"name":"高浜第一小学校","address":"千葉県千葉市美浜区高浜1-4-1","postalCode":"261-0003","coordinate":{"latitude":35.61987,"longitude":140.075894}},{"type":1,"name":"高浜公民館","address":"千葉県千葉市美浜区高浜1-8-3","postalCode":"261-0003","coordinate":{"latitude":35.620207,"longitude":140.073378}},{"type":1,"name":"市立稲毛高等学校・同附属中学校","address":"千葉県千葉市美浜区高浜3-1-1","postalCode":"261-0003","coordinate":{"latitude":35.620401,"longitude":140.068525}},{"type":1,"name":"高浜中学校","address":"千葉県千葉市美浜区高浜4-8-1","postalCode":"261-0003","coordinate":{"latitude":35.623768,"longitude":140.070887}},{"type":1,"name":"高浜海浜小学校","address":"千葉県千葉市美浜区高浜4-8-2","postalCode":"261-0003","coordinate":{"latitude":35.623464,"longitude":140.069654}},{"type":1,"name":"県立幕張総合高等学校（看護科校舎）","address":"千葉県千葉市美浜区若葉2-10-2","postalCode":"261-0014","coordinate":{"latitude":35.651476,"longitude":140.054039}},{"type":1,"name":"県立幕張総合高等学校","address":"千葉県千葉市美浜区若葉3-1-6","postalCode":"261-0014","coordinate":{"latitude":35.647831,"longitude":140.052809}},{"type":1,"name":"幕張勤労市民プラザ","address":"千葉県千葉市美浜区若葉3-1-8","postalCode":"261-0014","coordinate":{"latitude":35.648923,"longitude":140.050262}},{"type":1,"name":"真砂第五小学校","address":"千葉県千葉市美浜区真砂1-12-15","postalCode":"261-0011","coordinate":{"latitude":35.632619,"longitude":140.069148}},{"type":1,"name":"真砂東小学校","address":"千葉県千葉市美浜区真砂2-13-1","postalCode":"261-0011","coordinate":{"latitude":35.637802,"longitude":140.06691}},{"type":1,"name":"真砂コミュニティセンター","address":"千葉県千葉市美浜区真砂2-3-1","postalCode":"261-0011","coordinate":{"latitude":35.6404,"longitude":140.069187}},{"type":1,"name":"県立検見川高等学校","address":"千葉県千葉市美浜区真砂4-17-1","postalCode":"261-0011","coordinate":{"latitude":35.640109,"longitude":140.056873}},{"type":1,"name":"真砂西小学校","address":"千葉県千葉市美浜区真砂4-5-1","postalCode":"261-0011","coordinate":{"latitude":35.642633,"longitude":140.059097}},{"type":1,"name":"市立高等特別支援学校","address":"千葉県千葉市美浜区真砂5-18-1","postalCode":"261-0011","coordinate":{"latitude":35.644017,"longitude":140.061599}},{"type":1,"name":"真砂中学校","address":"千葉県千葉市美浜区真砂5-18-2","postalCode":"261-0011","coordinate":{"latitude":35.645222,"longitude":140.063106}},{"type":1,"name":"打瀬小学校","address":"千葉県千葉市美浜区打瀬1-3-1","postalCode":"261-0013","coordinate":{"latitude":35.642022,"longitude":140.047293}},{"type":1,"name":"打瀬公民館","address":"千葉県千葉市美浜区打瀬2-13","postalCode":"261-0013","coordinate":{"latitude":35.63969,"longitude":140.046688}},{"type":1,"name":"美浜打瀬小学校","address":"千葉県千葉市美浜区打瀬2-18-1","postalCode":"261-0013","coordinate":{"latitude":35.6380514,"longitude":140.0447194}},{"type":1,"name":"打瀬中学校","address":"千葉県千葉市美浜区打瀬3-12-1","postalCode":"261-0013","coordinate":{"latitude":35.6366406,"longitude":140.0431528}},{"type":1,"name":"海浜打瀬小学校","address":"千葉県千葉市美浜区打瀬3-3-1","postalCode":"261-0013","coordinate":{"latitude":35.640504,"longitude":140.041622}},{"type":1,"name":"幕張西公民館","address":"千葉県千葉市美浜区幕張西2-6-2","postalCode":"261-0026","coordinate":{"latitude":35.665574,"longitude":140.036361}},{"type":1,"name":"幕張西小学校","address":"千葉県千葉市美浜区幕張西2-8-1","postalCode":"261-0026","coordinate":{"latitude":35.664865,"longitude":140.038036}},{"type":1,"name":"幕張西中学校","address":"千葉県千葉市美浜区幕張西2-9-1","postalCode":"261-0026","coordinate":{"latitude":35.663569,"longitude":140.037348}},{"type":1,"name":"県立土気高等学校","address":"千葉県千葉市緑区あすみが丘東2-24-1","postalCode":"267-0061","coordinate":{"latitude":35.523568,"longitude":140.274237}},{"type":1,"name":"土気南小学校","address":"千葉県千葉市緑区あすみが丘4-16","postalCode":"267-0066","coordinate":{"latitude":35.523073,"longitude":140.265018}},{"type":1,"name":"土気南中学校","address":"千葉県千葉市緑区あすみが丘4-38","postalCode":"267-0066","coordinate":{"latitude":35.524839,"longitude":140.261005}},{"type":1,"name":"あすみが丘小学校","address":"千葉県千葉市緑区あすみが丘6-2","postalCode":"267-0066","coordinate":{"latitude":35.519679,"longitude":140.263327}},{"type":1,"name":"大椎小学校","address":"千葉県千葉市緑区あすみが丘6-38","postalCode":"267-0066","coordinate":{"latitude":35.514374,"longitude":140.26234}},{"type":1,"name":"土気あすみが丘プラザ","address":"千葉県千葉市緑区あすみが丘7-2-4","postalCode":"267-0066","coordinate":{"latitude":35.521279,"longitude":140.265204}},{"type":1,"name":"大椎中学校","address":"千葉県千葉市緑区あすみが丘8-26","postalCode":"267-0066","coordinate":{"latitude":35.517118,"longitude":140.270416}},{"type":1,"name":"有吉小学校","address":"千葉県千葉市緑区おゆみ野1-53","postalCode":"266-0031","coordinate":{"latitude":35.56129,"longitude":140.166093}},{"type":1,"name":"有吉中学校","address":"千葉県千葉市緑区おゆみ野2-41","postalCode":"266-0031","coordinate":{"latitude":35.560555,"longitude":140.170486}},{"type":1,"name":"鎌取コミュニティセンター","address":"千葉県千葉市緑区おゆみ野3-15-2","postalCode":"266-0031","coordinate":{"latitude":35.559952,"longitude":140.175703}},{"type":1,"name":"小谷小学校","address":"千葉県千葉市緑区おゆみ野4-45","postalCode":"266-0031","coordinate":{"latitude":35.555342,"longitude":140.181398}},{"type":1,"name":"扇田小学校","address":"千葉県千葉市緑区おゆみ野中央1-26","postalCode":"266-0032","coordinate":{"latitude":35.556929,"longitude":140.163464}},{"type":1,"name":"おゆみ野公民館","address":"千葉県千葉市緑区おゆみ野中央2-7-6","postalCode":"266-0032","coordinate":{"latitude":35.556087,"longitude":140.164181}},{"type":1,"name":"泉谷中学校","address":"千葉県千葉市緑区おゆみ野中央4-2","postalCode":"266-0016","coordinate":{"latitude":35.554916,"longitude":140.172145}},{"type":1,"name":"泉谷小学校","address":"千葉県千葉市緑区おゆみ野中央4-3","postalCode":"266-0016","coordinate":{"latitude":35.554272,"longitude":140.17359}},{"type":1,"name":"おゆみ野南小学校","address":"千葉県千葉市緑区おゆみ野南4-26","postalCode":"266-0033","coordinate":{"latitude":35.545057,"longitude":140.168743}},{"type":1,"name":"おゆみ野南中学校","address":"千葉県千葉市緑区おゆみ野南5-25","postalCode":"266-0033","coordinate":{"latitude":35.545119,"longitude":140.17698}},{"type":1,"name":"金沢小学校","address":"千葉県千葉市緑区おゆみ野南5-31","postalCode":"266-0015","coordinate":{"latitude":35.547626,"longitude":140.172434}},{"type":1,"name":"越智中学校","address":"千葉県千葉市緑区越智町651","postalCode":"267-0055","coordinate":{"latitude":35.533554,"longitude":140.241287}},{"type":1,"name":"越智小学校","address":"千葉県千葉市緑区越智町705-359","postalCode":"267-0055","coordinate":{"latitude":35.532181,"longitude":140.237031}},{"type":1,"name":"越智公民館","address":"千葉県千葉市緑区越智町822-7","postalCode":"267-0055","coordinate":{"latitude":35.534883,"longitude":140.236383}},{"type":1,"name":"古市場公園体育館・野球場","address":"千葉県千葉市緑区古市場町474-277","postalCode":"266-0026","coordinate":{"latitude":35.549187,"longitude":140.146295}},{"type":1,"name":"大木戸小学校","address":"千葉県千葉市緑区大木戸町317","postalCode":"267-0057","coordinate":{"latitude":35.531038,"longitude":140.250358}},{"type":1,"name":"土気中学校","address":"千葉県千葉市緑区土気町1400","postalCode":"267-0061","coordinate":{"latitude":35.54135,"longitude":140.272533}},{"type":1,"name":"土気公民館","address":"千葉県千葉市緑区土気町1631-7","postalCode":"267-0061","coordinate":{"latitude":35.530729,"longitude":140.273647}},{"type":1,"name":"土気市民センター","address":"千葉県千葉市緑区土気町1634","postalCode":"267-0061","coordinate":{"latitude":35.530758,"longitude":140.27324}},{"type":1,"name":"土気小学校","address":"千葉県千葉市緑区土気町1634-2","postalCode":"267-0061","coordinate":{"latitude":35.531626,"longitude":140.273411}},{"type":1,"name":"椎名公民館","address":"千葉県千葉市緑区富岡町290-1","postalCode":"266-0022","coordinate":{"latitude":35.543663,"longitude":140.163851}},{"type":1,"name":"平山小学校","address":"千葉県千葉市緑区辺田町141","postalCode":"266-0007","coordinate":{"latitude":35.568846,"longitude":140.180059}},{"type":1,"name":"椎名小学校","address":"千葉県千葉市緑区茂呂町582","postalCode":"266-0023","coordinate":{"latitude":35.541806,"longitude":140.163408}},{"type":1,"name":"誉田公民館","address":"千葉県千葉市緑区誉田町1-789-49","postalCode":"266-0005","coordinate":{"latitude":35.549869,"longitude":140.203233}},{"type":1,"name":"誉田中学校","address":"千葉県千葉市緑区誉田町1-138","postalCode":"266-0005","coordinate":{"latitude":35.552381,"longitude":140.202982}},{"type":1,"name":"誉田小学校","address":"千葉県千葉市緑区誉田町1-27","postalCode":"266-0005","coordinate":{"latitude":35.549554,"longitude":140.204475}},{"type":1,"name":"誉田東小学校","address":"千葉県千葉市緑区誉田町2-21-84","postalCode":"266-0005","coordinate":{"latitude":35.549533,"longitude":140.218211}},{"type":1,"name":"青葉の森公園芸術文化ホール","address":"千葉県千葉市中央区青葉町９７７－１","postalCode":"260-0852","coordinate":{"latitude":35.597896,"longitude":140.138826}},{"type":2,"name":"千葉公園","address":"千葉県千葉市中央区弁天3丁目1他","postalCode":"260-0045","coordinate":{"latitude":140.115925,"longitude":35.619178}},{"type":2,"name":"みなと公園","address":"千葉県千葉市中央区千葉港6","postalCode":"260-0026","coordinate":{"latitude":140.10486,"longitude":35.606671}},{"type":2,"name":"青葉の森公園","address":"千葉県千葉市中央区青葉町654","postalCode":"260-0852","coordinate":{"latitude":140.144497,"longitude":35.595366}},{"type":2,"name":"ＪＦＥ千葉体育館一帯","address":"千葉県千葉市中央区南町1-3-1","postalCode":"260-0842","coordinate":{"latitude":140.131645,"longitude":35.586585}},{"type":2,"name":"千葉明徳学園","address":"千葉県千葉市中央区南生実町1412","postalCode":"260-0814","coordinate":{"latitude":140.154581,"longitude":35.560637}},{"type":2,"name":"東大検見川総合運動場","address":"千葉県千葉市花見川区朝日ヶ丘町他","postalCode":"262-0019","coordinate":{"latitude":140.075565,"longitude":35.659031}},{"type":2,"name":"鷹之台カンツリー倶楽部","address":"千葉県千葉市花見川区柏井町ほか","postalCode":"262-0041","coordinate":{"latitude":140.107198,"longitude":35.701191}},{"type":2,"name":"千葉工業大学グラウンド一帯","address":"千葉県千葉市花見川区千種町300","postalCode":"262-0012","coordinate":{"latitude":140.115516,"longitude":35.679617}},{"type":2,"name":"昭和の森","address":"千葉県千葉市緑区土気町22","postalCode":"267-0061","coordinate":{"latitude":140.282969,"longitude":35.52225}},{"type":2,"name":"袖ヶ浦カンツリー倶楽部袖ヶ浦コース","address":"千葉県千葉市緑区辺田町567","postalCode":"266-0007","coordinate":{"latitude":140.185871,"longitude":35.564217}},{"type":2,"name":"袖ヶ浦カンツリー倶楽部新袖コース","address":"千葉県千葉市若葉区富田町1140","postalCode":"265-0041","coordinate":{"latitude":140.256211,"longitude":35.598614}},{"type":2,"name":"本千葉カントリークラブ","address":"千葉県千葉市緑区大金沢町311","postalCode":"266-0014","coordinate":{"latitude":140.175709,"longitude":35.537204}},{"type":2,"name":"平川カントリークラブ","address":"千葉県千葉市緑区平川町405","postalCode":"266-0004","coordinate":{"latitude":140.254165,"longitude":35.552824}},{"type":2,"name":"東急セブンハンドレッドクラブ","address":"千葉県千葉市緑区小山町359-6","postalCode":"267-0063","coordinate":{"latitude":140.270482,"longitude":35.502375}},{"type":2,"name":"陸上自衛隊高射学校","address":"千葉県千葉市若葉区若松町902","postalCode":"264-0021","coordinate":{"latitude":140.151151,"longitude":35.654443}},{"type":2,"name":"泉自然公園","address":"千葉県千葉市若葉区野呂町108","postalCode":"265-0053","coordinate":{"latitude":140.228035,"longitude":35.576601}},{"type":2,"name":"幕張海浜公園","address":"千葉県千葉市美浜区ひび野2","postalCode":"261-0021","coordinate":{"latitude":140.043754,"longitude":35.646501}},{"type":2,"name":"真砂中央公園","address":"千葉県千葉市美浜区真砂5-15","postalCode":"261-0011","coordinate":{"latitude":140.064199,"longitude":35.641608}},{"type":2,"name":"ニューサンピア千葉一帯","address":"千葉県千葉市中央区仁戸名町705","postalCode":"260-0801","coordinate":{"latitude":140.161904,"longitude":35.578274}},{"type":2,"name":"スマートコミュニティ稲毛グラウンド","address":"千葉県千葉市稲毛区長沼原町882-1","postalCode":"263-0001","coordinate":{"latitude":140.130565,"longitude":35.666136}},{"type":2,"name":"真砂中学校一帯","address":"千葉県千葉市美浜区真砂5-18-2","postalCode":"261-0011","coordinate":{"latitude":140.063106,"longitude":35.645222}},{"type":2,"name":"千葉県総合スポーツセンター","address":"千葉県千葉市稲毛区天台町323","postalCode":"263-0011","coordinate":{"latitude":140.120648,"longitude":35.64976}},{"type":2,"name":"東京歯科大学一帯","address":"千葉県千葉市美浜区真砂1-2-2","postalCode":"261-0011","coordinate":{"latitude":140.070451,"longitude":35.637265}},{"type":2,"name":"千葉大学構内","address":"千葉県千葉市稲毛区弥生町1-33","postalCode":"263-0022","coordinate":{"latitude":140.100661,"longitude":35.630196}},{"type":2,"name":"県立千葉工業高等学校一帯","address":"千葉県千葉市中央区今井町1478他","postalCode":"260-0815","coordinate":{"latitude":140.141208,"longitude":35.570994}},{"type":2,"name":"花見川中学校一帯","address":"千葉県千葉市花見川区花見川6-2","postalCode":"262-0046","coordinate":{"latitude":35.689048,"longitude":140.102719}},{"type":2,"name":"加曽利貝塚縄文遺跡公園","address":"千葉県千葉市若葉区桜木2-81-1","postalCode":"264-0022","coordinate":{"latitude":140.16452,"longitude":35.624663}},{"type":2,"name":"千城台公園一帯","address":"千葉県千葉市若葉区千城台南1-21","postalCode":"264-0003","coordinate":{"latitude":140.190973,"longitude":35.616576}},{"type":2,"name":"大宮中学校一帯","address":"千葉県千葉市若葉区大宮町2077","postalCode":"264-0016","coordinate":{"latitude":140.186793,"longitude":35.586227}},{"type":2,"name":"誉田中学校","address":"千葉県千葉市緑区誉田町1-138","postalCode":"266-0005","coordinate":{"latitude":140.202364,"longitude":35.552039}},{"type":2,"name":"土気中学校","address":"千葉県千葉市緑区土気町1400","postalCode":"267-0061","coordinate":{"latitude":140.271948,"longitude":35.540584}},{"type":2,"name":"土気南中学校一帯","address":"千葉県千葉市緑区あすみが丘4-38","postalCode":"267-0066","coordinate":{"latitude":140.261358,"longitude":35.52464}},{"type":2,"name":"泉谷小学校一帯","address":"千葉県千葉市緑区おゆみ野中央4-3","postalCode":"266-0032","coordinate":{"latitude":140.174682,"longitude":35.554359}},{"type":2,"name":"幕張西小学校一帯","address":"千葉県千葉市美浜区幕張西2-8-1","postalCode":"261-0026","coordinate":{"latitude":140.038036,"longitude":35.664865}},{"type":2,"name":"稲毛海岸公園一帯","address":"千葉県千葉市美浜区稲毛海岸2-3","postalCode":"261-0005","coordinate":{"latitude":140.082876,"longitude":35.631487}},{"type":2,"name":"幸町第二中学校一帯","address":"千葉県千葉市美浜区幸町1-10-2","postalCode":"261-0001","coordinate":{"latitude":140.097736,"longitude":35.61303}},{"type":2,"name":"幸町第一中学校一帯","address":"千葉県千葉市美浜区幸町2-12-7","postalCode":"261-0001","coordinate":{"latitude":140.090026,"longitude":35.621181}},{"type":2,"name":"神田外語大学","address":"千葉県千葉市美浜区若葉1-4-1","postalCode":"261-0014","coordinate":{"latitude":140.044112,"longitude":35.657217}},{"type":3,"name":"新宿小学校","address":"千葉市中央区新宿2-15-1","postalCode":"260-0021","coordinate":{"latitude":35.607909,"longitude":140.114303}},{"type":3,"name":"蘇我小学校","address":"千葉市中央区今井3-15-32","postalCode":"260-0834","coordinate":{"latitude":35.578211,"longitude":140.131263}},{"type":3,"name":"登戸小学校","address":"千葉市中央区登戸2-11-1","postalCode":"260-0032","coordinate":{"latitude":35.612438,"longitude":140.107616}},{"type":3,"name":"生浜西小学校","address":"千葉市中央区塩田町316-1","postalCode":"260-0823","coordinate":{"latitude":35.558963,"longitude":140.131289}},{"type":3,"name":"寒川小学校","address":"千葉市中央区寒川町1-205","postalCode":"260-0832","coordinate":{"latitude":35.597317,"longitude":140.121804}},{"type":3,"name":"新宿中学校","address":"千葉市中央区問屋町1-73","postalCode":"260-0025","coordinate":{"latitude":35.604404,"longitude":140.109207}},{"type":3,"name":"フクダ電子アリーナ","address":"千葉市中央区川崎町1-20","postalCode":"260-0835","coordinate":{"latitude":35.5774839,"longitude":140.1228739}},{"type":3,"name":"西の谷小学校","address":"千葉市花見川区幕張本郷3-22-6","postalCode":"262-0033","coordinate":{"latitude":35.666154,"longitude":140.04597}},{"type":3,"name":"幕張小学校","address":"千葉市花見川区幕張町4-781","postalCode":"262-0032","coordinate":{"latitude":35.661433,"longitude":140.053897}},{"type":3,"name":"幕張南小学校","address":"千葉市花見川区幕張町3-7718","postalCode":"262-0032","coordinate":{"latitude":35.657064,"longitude":140.047183}},{"type":3,"name":"稲毛小学校","address":"千葉市稲毛区稲毛町5-535","postalCode":"263-0035","coordinate":{"latitude":35.640697,"longitude":140.083025}},{"type":3,"name":"磯辺第三小学校","address":"千葉市美浜区磯辺1-25-1","postalCode":"261-0012","coordinate":{"latitude":35.630095,"longitude":140.064158}},{"type":3,"name":"磯辺小学校","address":"千葉市美浜区磯辺4-16-1","postalCode":"261-0012","coordinate":{"latitude":35.631764,"longitude":140.058101}},{"type":3,"name":"稲毛第二小学校","address":"千葉市美浜区稲毛海岸5-7-1","postalCode":"261-0005","coordinate":{"latitude":35.63699,"longitude":140.075062}},{"type":3,"name":"稲浜小学校","address":"千葉市美浜区稲毛海岸2-3-2","postalCode":"261-0005","coordinate":{"latitude":35.629948,"longitude":140.084343}},{"type":3,"name":"旧幸町第一小学校（跡施設）","address":"千葉市美浜区幸町2-17-4","postalCode":"261-0001","coordinate":{"latitude":35.624268,"longitude":140.088305}},{"type":3,"name":"旧幸町第二小学校（跡施設）","address":"千葉市美浜区幸町2-9-4","postalCode":"261-0001","coordinate":{"latitude":35.617951,"longitude":140.094649}},{"type":3,"name":"幸町第三小学校","address":"千葉市美浜区幸町1-10-1","postalCode":"261-0001","coordinate":{"latitude":35.61127,"longitude":140.099009}},{"type":3,"name":"幸町小学校","address":"千葉市美浜区幸町2-12-12","postalCode":"261-0001","coordinate":{"latitude":35.621654,"longitude":140.090536}},{"type":3,"name":"高洲小学校","address":"千葉市美浜区高洲2-2-20","postalCode":"261-0004","coordinate":{"latitude":35.625053,"longitude":140.079808}},{"type":3,"name":"高洲第三小学校","address":"千葉市美浜区高洲3-3-11","postalCode":"261-0004","coordinate":{"latitude":35.626726,"longitude":140.074168}},{"type":3,"name":"高洲第四小学校","address":"千葉市美浜区高洲1-15-1","postalCode":"261-0004","coordinate":{"latitude":35.630763,"longitude":140.077952}},{"type":3,"name":"高浜第一小学校","address":"千葉市美浜区高浜1-4-1","postalCode":"261-0003","coordinate":{"latitude":35.620059,"longitude":140.07605}},{"type":3,"name":"高浜海浜小学校","address":"千葉市美浜区高浜4-8-2","postalCode":"261-0003","coordinate":{"latitude":35.623464,"longitude":140.069654}},{"type":3,"name":"幕張西小学校","address":"千葉市美浜区幕張西2-8-1","postalCode":"261-0026","coordinate":{"latitude":35.664865,"longitude":140.038036}},{"type":3,"name":"真砂東小学校","address":"千葉市美浜区真砂2-13-1","postalCode":"261-0011","coordinate":{"latitude":35.637802,"longitude":140.06691}},{"type":3,"name":"真砂第五小学校","address":"千葉市美浜区真砂1-12-15","postalCode":"261-0011","coordinate":{"latitude":35.632619,"longitude":140.069148}},{"type":3,"name":"磯辺中学校","address":"千葉市美浜区磯辺7-1-1","postalCode":"261-0012","coordinate":{"latitude":35.632514,"longitude":140.053963}},{"type":3,"name":"稲毛高等学校・付属中学校","address":"千葉市美浜区高浜3-1ｰ1","postalCode":"261-0003","coordinate":{"latitude":35.620392,"longitude":140.06848}},{"type":3,"name":"稲浜中学校","address":"千葉市美浜区稲毛海岸2-3-3","postalCode":"261-0005","coordinate":{"latitude":35.632781,"longitude":140.081805}},{"type":3,"name":"打瀬中学校","address":"千葉市美浜区打瀬3-12-1","postalCode":"261-0013","coordinate":{"latitude":35.6366406,"longitude":140.0431528}},{"type":3,"name":"幸町第一中学校","address":"千葉市美浜区幸町2-12-7","postalCode":"261-0001","coordinate":{"latitude":35.620496,"longitude":140.08954}},{"type":3,"name":"幸町第二中学校","address":"千葉市美浜区幸町1-10-2","postalCode":"261-0001","coordinate":{"latitude":35.612579,"longitude":140.098057}},{"type":3,"name":"高洲第一中学校","address":"千葉市美浜区高洲2-3-18","postalCode":"261-0004","coordinate":{"latitude":35.623245,"longitude":140.077441}},{"type":3,"name":"高洲第二中学校","address":"千葉市美浜区高洲4-4-3","postalCode":"261-0004","coordinate":{"latitude":35.632562,"longitude":140.071747}},{"type":3,"name":"高浜中学校","address":"千葉市美浜区高浜4-8-1","postalCode":"261-0003","coordinate":{"latitude":35.623768,"longitude":140.070887}},{"type":3,"name":"幕張西中学校","address":"千葉市美浜区幕張西2-9-1","postalCode":"261-0026","coordinate":{"latitude":35.663569,"longitude":140.037348}},{"type":3,"name":"真砂中学校","address":"千葉市美浜区真砂5-18-2","postalCode":"261-0011","coordinate":{"latitude":35.645222,"longitude":140.063106}},{"type":3,"name":"新港清掃工場","address":"千葉市美浜区新港226-1","postalCode":"261-0002","coordinate":{"latitude":35.60945,"longitude":140.072607}},{"type":3,"name":"県立生浜高等学校","address":"千葉市中央区塩田町372","postalCode":"260-0823","coordinate":{"latitude":35.560683,"longitude":140.129611}},{"type":3,"name":"千葉職業能力開発短期大学校","address":"千葉市中央区問屋町2-25","postalCode":"260-0025","coordinate":{"latitude":35.601699,"longitude":140.112489}},{"type":3,"name":"千葉ポートスクエア","address":"千葉市中央区問屋町1-35","postalCode":"260-0025","coordinate":{"latitude":35.602999,"longitude":140.110762}},{"type":3,"name":"真砂西小学校","address":"千葉市美浜区真砂4-5-1","postalCode":"261-0011","coordinate":{"latitude":35.642633,"longitude":140.059097}},{"type":3,"name":"県立磯辺高等学校","address":"千葉市美浜区磯辺2-7-1","postalCode":"261-0012","coordinate":{"latitude":35.62603,"longitude":140.058344}},{"type":3,"name":"県立千葉西高等学校","address":"千葉市美浜区磯辺3-30-3","postalCode":"261-0012","coordinate":{"latitude":35.627413,"longitude":140.053344}},{"type":3,"name":"県立検見川高等学校","address":"千葉市美浜区真砂4-17-1","postalCode":"261-0011","coordinate":{"latitude":35.640109,"longitude":140.056873}},{"type":3,"name":"県立幕張総合高等学校","address":"千葉市美浜区若葉3-1-6","postalCode":"261-0014","coordinate":{"latitude":35.647831,"longitude":140.052809}},{"type":3,"name":"綜警千葉ビル","address":"千葉市美浜区幸町1-26-5","postalCode":"261-0001","coordinate":{"latitude":35.616715,"longitude":140.099182}},{"type":3,"name":"地方卸売市場","address":"千葉市美浜区高浜2-2-1","postalCode":"261-0003","coordinate":{"latitude":35.613383,"longitude":140.071864}}],"shelterTypes":[{"id":0,"name":"避難場所","description":"災害が発生して一時的な避難が必要なときに、身の安全を確保する場所"},{"id":1,"name":"避難所","description":"被災者の住宅に危険が予想される場合や住宅が損壊した場合など、生活の場が失われた場合に、一時的な生活の本拠地として宿泊滞在するための施設"},{"id":2,"name":"広域避難場所","description":"大規模な火災が発生したとき、輻射熱や煙などから身を守り、安全を確保する場所"},{"id":3,"name":"津波避難ビル","description":"津波災害発生時、高台への避難が間に合わない場合に緊急的に一時避難する施設"}]}